nombre_farmacia,latitud,longitud
FARMACIAS BENAVIDES SUC JAZMINEZ BCN,3.25232639,-117.1201127
FARMAHORRO,32.52812925,-117.1160932
FARMACIA GUADALAJARA,32.52814052,-117.1160931
FARMACIAS PUEBLO VIEJO,32.52305756,-117.1159582
BOTICAS GUADALUPANA,32.52905442,-117.0893834
BOTICAS GUADALUPANA,32.52691822,-117.0889031
FARMACIA PATTYS,3.25160825,-117.0836044
FARMACIAS BENAVIDES SUC CALLE H BCN,32.53327998,-117.079138
BOTICAS GUADALUPANA,32.52663766,-117.076327
BOTICAS GUADALUPANA,32.52986729,-117.0737075
FARMACIAS BENAVIDES SUC JUSTO SIERRA BCN,32.53288518,-117.0730378
BOTICAS GUADALUPANA,32.48378021,-117.0678816
FARMACIA GUADALAJARA,32.47766385,-117.0666033
FARMACIAS BENAVIDES SUC AVIACION BCN,32.50998582,-117.0609637
FARMACIA ROMA JUSTO SIERRA,32.36690155,-117.0602959
FARMACIA BENAVIDES SUC PLAZA SOL MEXICALI BCN,32.36687696,-117.06029
FARMACIAS BENAVIDES SUC CACHANILLA BCN,32.36606147,-117.0597843
FARMACIAS BENAVIDES SUC VISTA HERMOSA BCN,32.36276674,-117.0594188
FARMACIA GUADALAJARA,32.51482804,-117.0579367
FARMACIAS BENAVIDES SUC MICHOACAN BCN,32.51436911,-117.0576651
FARMACIAS BENAVIDES SUC PUEBLO NUEVO BCN,32.36582056,-117.0539497
FARMACIA BENAVIDES SUC CATAVIÑA BCN,32.32582123,-117.0500061
BOTICAS GUADALUPANA,32.36090235,-117.0496223
FARMACIAS BENAVIDES SUC CETYS BCN,32.40769558,-117.0481007
FARMACIAS ROMA PLAZA 686,32.53320024,-117.047161
FARMACIAS YZA,32.53474317,-117.0459446
FARMACIAS ROMA EL CABALLITO,32.52674167,-117.045147
FARMACIA VERONICA,32.53198409,-117.044912
FARMACIAS BENAVIDES SUC GLORIETA B. JUAREZ BCN,32.53494171,-117.0435625
FARMACIAS EL REY IV,3.25324252,-117.0431143
FARMACIA BENAVIDES SUC ELECTRICISTAS BCN,32.53486753,-117.0425986
FARMACIA ROMA SANTA BARBARA,32.43282203,-117.0425317
FARMACIA GUADALAJARA,32.53493137,-117.0418667
FARMACIA GENERICOS,32.53245358,-117.0415139
FARMACIA SAN MARTIN,3.24907742,-117.0414197
FARMACIAS GUADALAJARA,32.53636527,-117.0408678
FARMACIA DRA. FARMACOSTO,32.53183568,-117.0398684
FARMACIAS BENAVIDES SUC LOS ANGELES BCN,32.53171534,-117.038043
FARMACIA SANTA MONICA,3.25339696,-117.0377063
FARMACIAS BENAVIDES SUC COLEGIO MILITAR BCN,32.52669224,-117.0373918
FARMACIAS BENAVIDES SUC RIO FUERTE BCN,32.53372737,-117.036878
FARMACIAS BENAVIDES SUC MARY CRISTY BCN,32.53538758,-117.0366227
FARMACIA GUADALAJARA,32.53124413,-117.0365929
FARMACIA BENAVIDES SUC MEXICALI CENTER BCN,32.48204689,-117.0361515
FARMACIAS GUADALAJARA,32.44378961,-117.0356694
FARMACIA BENAVIDES SUC CALLE NOVENA BCN,32.53281732,-117.0356168
FARMACIAS BENAVIDES,32.53570306,-117.035202
FARMACIA BENAVIDES SUC CUERVOS BCN,32.53623466,-117.0337607
FARMACIAS BENAVIDES SUC SAN MARCOS BCN,3.24865819,-117.0329435
FARMACIAS PATTYS,3.25331893,-117.0329146
BOTICAS GUADALUPANA,32.52291925,-117.032326
FARMACIA MOCORITO,32.53446747,-117.0322189
FARMACIAS SIMILARES,32.48936565,-117.0315374
GI FARMACIAS DE MÉXICO,32.43575222,-117.0313929
FARMACIAS GUADALAJARA,32.49264489,-117.0309418
FARMACIAS GUADALAJARA,32.53863113,-117.0286703
FARMACIAS GUADALAJARA,32.52994758,-117.0284428
FARMACIAS BENAVIDES SUC PALMAR BCN,32.53026312,-117.025486
FARMACIA BENAVIDES SUC 5 Y LAZARO BCN,32.53679144,-117.0245755
FARMACIAS BENAVIDES SUC CARVAJAL BCN,32.52812875,-117.0240519
FARMACIA GUADALAJARA,32.51182276,-117.0225201
FARMACIAS BENAVIDES,32.51690989,-117.0212939
FARMACIAS ROMA TELEVISORA,32.53721551,-117.0150929
FARMACIAS GUADALAJARA,32.44441319,-117.0146088
FARMACIAS DEL AHORRO BCN MLGF MEXICALI 1271,32.52336114,-117.01455
FARMACIAS BENAVIDES SUC VILLA FONTANA BCN,3.25365222,-117.0139728
FARMACIA GUADALAJARA,32.51139691,-117.0132585
FARMACIAS SANTA MONICA,32.52116001,-117.0126878
FARMACIAS BENAVIDES SUC VILLANOVA BCA,32.51854029,-117.0118904
BOTICAS GUADALUPANA,32.53060136,-117.0116932
UNIVERSAL NATURAL CENTER,32.51349589,-117.00859
BOTICA GUADALUPANA,32.51477218,-117.0078771
BOTICAS GUADALUPANA,32.46827224,-117.0046186
FARMACIA SANTA MONICA,32.46958267,-117.0037889
FARMACIAS BENAVIDES SUC MEXICALI BCN,32.51246311,-117.0032384
FARMACIA SUPER REYNA,32.54053124,-117.0008511
FARMACIAS BENAVIDES SUC SANCHEZ TABOADA BCN,32.50796368,-116.9995008
FARMACIAS BENAVIDES SUC BRAULIO MALDONADO BCN,32.54100931,-116.9975698
FARMACIA BENAVIDES SUC ISLAS AGRARIAS BCN,32.52395918,-116.9966723
FARMACIA ARIANA,32.53913288,-116.9961106
BOTICA SANTA MÓNICA,32.49739567,-116.9920704
FARMACIA ANGELES,32.52839799,-116.9912592
FARMACIAS BENAVIDES SUC PALACO BCN,32.47009005,-116.987523
FARMACIAS SIMILARES,32.49871117,-116.9853595
FARMACIAS GUADALAJARA,32.50665208,-116.9850663
SUPER FARMACIAS DE MEXICALI,32.50862309,-116.983822
OMNILIFE,32.52951004,-116.9778646
FARMACIA BENAVIDES SUC MONARCAS BCN,32.50530333,-116.9777203
FARMACIAS BENAVIDES SU CCONDOR BCN,32.50463543,-116.9766017
FARMACIAS BENAVIDES SUC LOMBARDO TOLEDANO BCN,32.49768167,-116.9738555
FARMACIAS GUADALAJARA,32.47735112,-116.9693082
FARMACIA ANGEL DE AMOR,32.49986906,-116.9684637
FARMACIA GUADALAJARA,32.49858549,-116.9661613
FARMACIAS BENAVIDES SUC LOS PORTALES MEXICALI BCN,32.46109348,-116.9652697
FARMACIA EMANUEL,32.42518127,-116.9652303
BOTICAS GUADALUPANA,32.42518076,-116.9652296
FARMACIAS BENAVIDES,32.46113436,-116.965208
FARMACIAS BENAVIDES SUC TORINO BCN,32.49699326,-116.9631385
FARMACIAS ROMA VIDAURRI,32.49261534,-116.9560985
FARMACIAS BENAVIDES SUC SANTIAGO VIDAURRI BCN,32.46659356,-116.9553217
FARMACIAS GUADALAJARA,32.51124379,-116.9553041
FARMACIAS GUADALAJARA,32.46859987,-116.9537047
FARMACIAS AMALIA,32.43408101,-116.9526325
FARMACIAS BENAVIDES SUC PEDREGAL BCN,32.53406916,-116.9499432
FARMACIAS BENAVIDES SUC SAN ANGEL BCN,32.51713755,-116.9460438
BOTICAS GUADALUPANA,32.53343835,-116.9405686
FARMACIAS ROMA,32.38765824,-116.9387842
FARMACIAS ROMA TECATE JUAREZ,32.47966261,-116.9371949
FARMACIA ROMA PALACIO,32.54473927,-116.936988
BOTICAS GUADALUPANA,32.53506389,-116.9331277
FARMACIA GISELL,32.54437837,-116.931087
FARMACIAS ROMA TECATE LOS ENCINOS,32.44328322,-116.9301957
FARMACIAS BENAVIDES SUC CENTRO URBANO BCN,32.46352196,-116.9289457
FARMACIAS BENAVIDES SUC TECATE BCN,32.50778923,-116.9278043
FARMACIA GUADALAJARA,32.52395193,-116.9255138
FARMACIAS BENAVIDES SUC IGNACIO ZARAGOZA BCN,32.46421633,-116.9251177
FARMACIA GUADALAJARA,3.24579194,-116.9248302
FARMACIA GUADALAJARA,32.46347316,-116.9240898
FARMACIAS ROMA SANTA ANITA,32.50379578,-116.9216153
FARMACIA SIMILAR,32.52461842,-116.9206982
FARMACIAS BENAVIDES SUC BELLAS ARTES BCN,32.49192731,-116.9205452
FARMACIA ROMA MAGISTERIAL,0.32226076,-116.9194323
FARMACIA SHEERS,32.49912933,-116.9183467
FARMACIAS BENAVIDES SUC CUAUHTEMOC BCN,32.22527084,-116.9183296
FARMACIA AMSTERDAM,32.46815445,-116.9183139
FARMACIA LA LINEA,32.46858778,-116.917382
FARMACIA PREMIER,32.46858349,-116.917382
FARMACIA TITI,32.48955666,-116.9169934
FARMACIA ROMA LAS CALIFORNIAS,32.48983833,-116.9167227
FARMACIAS ROMA CHAPARRAL,32.22256683,-116.916339
FARMACIA MAGGIE,32.22137921,-116.9160627
FARMACIA ROMA CENTRO MEDICO LIBERTAD,32.22123454,-116.9160198
FARMACIAS BENAVIDES SUC PUEBLO AMIGO 0.F.N.BCN,32.54518891,-116.9068179
FARMACIA FRANCIA,32.49024805,-116.9054168
FARMACIA DOCTOR S,32.49054188,-116.9050969
FARMACIA TITAN,32.50246406,-116.9036822
FARMACIA SANTA TERESITA,32.53490588,-116.9019236
FARMACIA ROMA PLAZA DORADA OTAY,3.25016021,-116.8927964
EQUILIBRIO FARMACEUTICO,32.50139616,-116.8923581
FARMACIAS BENAVIDES SUC CALLE SEGUNDA II BCN,32.50126173,-116.8922474
FARMACIAS ROMA LAS TORRES OTAY,32.52362323,-116.8907433
FARMACIA UNIVERSO,32.50152087,-116.8905682
FARMACIAS DE DESCUENTO,32.49835023,-116.890233
FARMACIA BAJA MAX,32.50162757,-116.8897232
FARMACIA MORELIA,32.49387866,-116.884095
FARMACIA GUSHER,32.49349351,-116.8831102
FARMACIA GUADALAJARA,32.46148419,-116.8804873
FARMACIA INTERNACIONAL,3.24800106,-116.880301
DISCOUNT PHARMACY 2,32.53049004,-116.8735172
FARMACIA FUENTE DE SALUD,32.51289918,-116.8722907
FARMACIA D KARLO,32.46306704,-116.8685346
FARMACIA ROMA CALLE 3RA,32.49722875,-116.8618652
FARMACIA BENAVIDES SUC EL SOLER BCN,32.47254336,-116.8598713
FARMACIA NAYELI,32.47275516,-116.8597948
FARMACIA GUADALAJARA,32.51408009,-116.8594916
FARMACIAS DEL ALBA,32.51421971,-116.8591798
FARMACIA OLIMPYA,32.48994098,-116.8550372
FARMACIA ROMA CENTRO CALLE 5TA,32.49022358,-116.8539004
MEDS4U,32.48533504,-116.8530049
FARMACIA ROMA LIMON LIBERTAD,32.49694874,-116.8498375
FARMACIA ROMA RIBERA DEL BOSQUE,32.46950911,-116.8459764
FARMACIA ROMA PASEO DE LOS HEROES,32.46972516,-116.8453826
FARMACIA ROMA RIO SANCHEZ TABOADA,32.45654608,-116.8264505
FARMACIA ROMA PLAZA MISION SOLER,32.50791808,-116.7357323
FARMACIAS GUADALAJARA,31.88694614,-116.6878292
FARMACIA ROMA MIRADOR,31.86693617,-116.6602526
FARMACIA ROMA TOMAS AQUINO,32.56412221,-116.6511157
FARMACIA BENAVIDES SUC CASTELLANOS BCN,32.57288091,-116.6346579
FARMACIAS BENAVIDES SUC PLAYAS BCN,32.56640091,-116.6344104
FARMACIAS BENAVIDES SUC PLAZA JARDINES BCN,32.56597994,-116.6315285
FARMACIA YZA,32.56294658,-116.631522
FARMACIA GUSHER,3.18642041,-116.6276421
FARMACIAS GUADALAJARA,31.86354141,-116.6275154
FARMACIA ROMA INDEPENDENCIA CALLE 9NA,31.86210863,-116.6265445
FARMACIA SAN GABRIEL,31.86988864,-116.6259726
FARMACIA MARGOT,32.57272339,-116.6258679
FARMACIA Y MISCELANEA LA POSTAL,31.86965242,-116.624616
FARMACIAS SIMILARES,3.18705076,-116.6242122
FARMACIAS ROMA LA POSTAL,3.18682849,-116.6237073
FARMACIA ROMA MURUA,31.86663983,-116.6232037
FARMACIA ROMA TERAN TERAN,31.86051618,-116.6230551
FARMACIAS DE SUPERDESCUENTOS DEL NORTE,31.87151128,-116.6225325
FARMACIA ROMA AV PASEO ENSENADA PLAYAS,31.87062264,-116.6198294
FARMACIA ROMA TORRE AGUACALIENTE,31.86514417,-116.6185623
FARMACIA DEL SOL,31.86384291,-116.6158588
FARMACIAS GUADALAJARA,32.57525541,-116.6128772
FARMACIA LA MAS BARATA SUC 28,31.88322006,-116.608582
FARMACIA SAN LUIS,31.86918212,-116.6084454
FARMACIAS ROMA ALAMAR,31.86439296,-116.6075026
FARMACIA ROMA TROPICANA CACHO,31.85074237,-116.6072679
FARMACIAS BENAVIDES SUC FRANCISCO VILLA BCN,31.86032164,-116.6064837
FARMACIAS GUADALAJARA,3.18596977,-116.6062888
FARMACIA ROMA VILLA,31.83219392,-116.605437
FARMACIAS BENAVIDES SUC CUCAPH BCN,31.82523877,-116.6040578
FARMACIAS GUADALAJARA,31.84187634,-116.6027628
FARMACIA INTERNACIONAL,31.83686014,-116.6021028
FARMACIA ROMA VILLAFONTANA,31.85153709,-116.6006604
FARMACIA ROMA CONQUSITADOR,31.86112364,-116.5994557
FARMACIA GREEN,3.18517992,-116.5988664
FARMACIA LUISA,31.85206682,-116.598095
FARMACIA ROMA CAMPESTRE,31.81436666,-116.5975599
FARMACIAS GUADALAJARA,31.86258168,-116.5896277
FARMACIA ROMA CHAPULTEPEC,31.86300973,-116.5866761
FARMACIA GAL,31.79040631,-116.5855215
FARMACIAS ROMA CHOPO,3.17831961,-116.5851277
FARMACIA GUSHER,3.17294582,-116.578608
FARMACIA ROMA HIPODROMO,3.18962326,-116.5773947
FARMACIAS ROMA URBI VILLAS DEL CAMPO,31.88047647,-116.5769317
FARMACIA BENAVIDES SUC DEL LAGO BCN,31.72386746,-116.5738824
FARMACIAS GUADALAJARA,31.72220064,-116.5730779
FARMACIA ROMA LA MESA,3.18953943,-116.5675292
FARMACIA BENAVIDES SUC VIENTOS ALISEOS BCN,32.10123572,-116.5638047
FARMACIA GUADALAJARA,31.06467772,-116.2081965
FARMACIA ROMA,31.06935619,-116.2074659
MERCADO REYES,31.07053164,-116.2071146
FARMACIAS BENAVIDES SUC CASA BLANCA BCN,30.56854982,-115.9445719
FARMACIA GUADALAJARA,32.63226168,-115.5603555
FARMACIA ROMA,32.64677192,-115.5228705
FARMACIA ROMA CASA BLANCA,32.64618044,-115.5212675
SUCURSA SOL FARMACIA INTEGRA,32.62144262,-115.5138515
FARMACIA GUSHER,32.65623963,-115.5104691
FARMACIA SOFIA,32.64236977,-115.506113
FARMACIA ROMA 5 Y 10,3.26131366,-115.5061024
FARMACIA ROMA COLORADO MATAMOROS,32.65613563,-115.5058942
FARMACIA ROMA ALBA ROJA,32.64714945,-115.5057373
FARMACIA LH,32.64185244,-115.5057069
FARMACIA GUADALAJARA,32.64449171,-115.5057005
FARMACIA BENAVIDES SUC 5 Y 10 BCN,32.62411872,-115.5056902
FARMACIA ROMA CORREDOR 2000,32.64393388,-115.5055955
FARMACIA GUADALAJARA,32.63048046,-115.5053104
FARMACIAS GUADALAJARA,32.63048036,-115.5052793
FARMACIA ROMA FUNDADORES,32.62365846,-115.5020688
FARMACIA ROMA CALZADA GUADALUPE,32.65612926,-115.5004361
FARMACIA MONTESSA,32.62395211,-115.5002581
FARMACIAS ROMA PRESIDENTES,3.26562537,-115.4993646
FARMACIA ROMA,32.62395503,-115.4975682
FARMACIA GUADALAJARA,32.64516622,-115.4954955
FARMACIA ROMA EL DORADO,32.62361086,-115.4951287
FARMACIA ROMA GUAYCURA,32.66406357,-115.4950156
FARMACIA ROMA BICENTENARIO,32.62398046,-115.4948254
FARMACIA ROMA TERRAZAS DEL VALLE,32.66266996,-115.4937311
FARMACIA ESTELITA,32.63329061,-115.4935985
FARMACIA SAN FRANCISCO,32.66232852,-115.491509
FARMACIA TREBOL,32.66088698,-115.4914624
FARMACIA INTERNACIONAL,32.65904863,-115.48894
FARMACIAS BENAVIDES SUCURSAL PRIMERA,3.26627843,-115.4879628
FARMACIA ROMA SALVATIERRA,32.66193803,-115.4867042
FARMACIA ROMA LOMA BONITA,32.60439496,-115.4835995
FARMACIAS GUADALAJARA,32.59368341,-115.4814994
FARMACIAS GUADALAJARA,32.61829436,-115.4792821
FARMACIA GUADALAJARA,32.61820067,-115.479282
FARMACIA FUNDADORES,32.59894666,-115.4784121
BOTICAS GUADALUPANA,32.66543352,-115.4778117
FARMACIA SIFARMA,32.63145967,-115.4769162
FARMACIAS ROMA EL RUBI,32.64453643,-115.4763237
FARMACIA GUADALAJARA,32.66577954,-115.475505
FARMACIA ROMA VILLAFLORESTA,32.62368611,-115.4732209
FARMACIA VENISSA,32.60466153,-115.472971
FARMACIA ROMA PLAZA CORTEZ SANCHEZ TABOADA,32.61838117,-115.4725628
FARMACIAS GUADALAJARA,32.58478795,-115.4724751
FARMACIAS BENAVIDES SUC LOMAS DEL REFUGIO BCN,32.59961448,-115.4724654
FARMACIAS BENAVIDES SUC FLORIDO BCN,32.65095989,-115.472254
FARMACIAS GUADALAJARA,32.66587665,-115.4719433
FARMACIA SAN JORGE,32.59627692,-115.4665271
FARMACIAS ROMA PACIFICO,32.65016544,-115.4652795
FARMACIA ROMA,32.66100282,-115.4642548
FARMACIA GUADALAJARA,3.26064217,-115.4637342
FARMACIAS BENAVIDES SUCURSAL SAN LUIS RIO COLORADO-KINO,32.61250687,-115.4627626
FARMACIA ROMA LAS FUENTES,32.64710201,-115.4604101
FARMACIA ROMA LATINOS,32.61761699,-115.4570344
FARMACIAS BENAVIDES SUC BLVD. INSURGENTES BCN,32.65977368,-115.4525842
FARMACIAS BENAVIDES SUC PLAZA DEL RIO BCN,32.63784143,-115.4525654
FARMACIA MARCE,32.65792591,-115.4523276
FARMACIAS BENAVIDES SUC COLINAS DE CALIFORNIA BCN,32.64841971,-115.4518056
CONSULTORIO BENAVIDES,32.65735141,-115.4498096
TERRA FARMACIAS,32.66263631,-115.449368
FARMACIA EDIRO,32.63642998,-115.448228
AS FARMACIA,32.63681902,-115.4482276
FARMACIAS BENAVIDES SUC LIBERTAD RIO COLORADO,32.58800908,-115.4448336
FARMA VIDA,32.62291008,-115.4432163
FARMACIAS GUADALAJARA,3.25873144,-115.4404289
FARMACIAS SIMILARES,32.61468256,-115.4400488
FARMACIAS BENAVIDES SUC CONTRERAS BCN,32.63915177,-115.4382
FARMACIA ROMA SIMON BOLIVAR,32.66301742,-115.4375483
FARMACIAS BENAVIDES SUC MILENIO BCN,32.58563891,-115.434391
FARMACIA ROMA CENTRO COMERCIAL PLAZA EL REFUGIO,32.58449564,-115.4343508
FARMACIAS ROMA SANCHEZ TABOADA,32.62462239,-115.4341926
FARMACIA ROMA,32.64299462,-115.4323897
FARMACIA BIENESTAR,32.58510975,-115.4320319
FARMACIA ROMA LOMAS DEL REFUGIO,32.62531769,-115.4318878
BOTICAS GUADALUPANA,32.62495633,-115.4317698
FARMACIAS BENAVIDES SUCURSAL PLAZA 26,32.65868005,-115.4282489
FARMACIAS BENAVIDES SUCURSAL SAN LUIS RIO COLORADO,32.62470382,-115.4279975
FARMACIA ROMA LA GLORIA,32.65863237,-115.426582
FARMACIA ROMA LA PAJARITA SANTA FE,32.61432073,-115.4261854
FARMACIAS ROMA LOMAS DE LA PRESA,32.63848286,-115.4183977
FARMACIA POPULAR,32.65695005,-115.4161202
FARMACIA NACIONAL SANTA FE,32.66480058,-115.4157762
FARMACIAS ROMAS CANON DEL SAINZ,32.65507382,-115.413361
FARMACIA GENT PART,32.62293042,-115.4060279
FARMACIAS ROMA SANTA FE CEDROS,32.60949035,-115.4053942
FARMACIA VIANED,32.60919525,-115.4051764
FARMACIAS MODERNAS DE TIJUANA,32.65295066,-115.4013362
FARMACIA ROMA URBI VILLAS DEL PRADO,32.59087956,-115.3983455
FARMACIAS ROMA AZTLAN,3.26091234,-115.3954672
FARMACIAS ROMA NATURA,32.61176145,-115.3952018
FARMACIA GUADALAJARA,32.65290458,-115.3946581
FARMACIA ROMA PLAZA GIRAMAR JUAREZ,32.61250563,-115.3945423
FARMACIA ROMA BENITO JUAREZ,32.62949228,-115.3877699
FARMACIA GUADALAJARA,32.63246729,-115.3870282
FARMACIA ROMA SAN JUAN CONSTITUCION,32.63619259,-115.385802
FARMACIA GUSHER,32.59804284,-115.3855583
FARMACIAS ROMA BLVD GUERRERO,32.59430887,-115.3830206
FARMACIA ROMA MAZATLAN,32.61302371,-115.3776479
FARMACIAS ROMA POPOTLA,32.60169869,-115.373578
FARMACIA GUADALAJARA,32.61397703,-115.3709284
FARMACIA BENAVIDES SUC K43 BCN,32.57872403,-115.3671754
WHITE HORSE,3.25781643,-115.3623135
FARMACIA DE JESUS,32.57797806,-115.3608356
FARMACIAS ROMA PRIMO TAPIA,32.55995532,-115.3583841
FARMACIA ESMAR,32.58401169,-115.3557785
INTEGRA FARMACIAS,28.09508426,-115.1872594
ENTREGA CANTAMAR,28.09570867,-115.1870155
FARMACIA MATER,32.23892093,-115.1673981
FARMACIA SANTA MONICA,32.28648157,-115.1009149
FARMACIAS ROMA VALLE DE GUADALUPE,32.28781306,-115.0993234
FARMACIA SAN ANGEL,32.19604288,-114.9982159
FARMACIAS ROMA POPULAR,32.56952972,-114.9975719
LA MEXICANA FARMACIA Y MAS,32.57119233,-114.992537
FARMACIAS ROMA VALLE VERDE,27.69619457,-114.8973697
FARMACIAS ROMA PLAZA CIRCUITO ORIENTE,32.63323115,-114.8533107
FARMACIAS GUADALAJARA,32.63524376,-114.8528263
FARMACIAS ROMA RIVEROL,32.63528214,-114.8526839
FARMACIAS ROMA PARQUE REVOLUCION,31.02647958,-114.8453198
FARMACIA BENAVIDES SUC CENTRO ENSENADA BCN,32.43241747,-114.8209461
FARMACIA GUADALAJARA,32.46800972,-114.7989538
FARMACIA BELEM,32.48382665,-114.7829993
VIVEST PHARMACY Y HEALTHY BAR,32.48478258,-114.7826304
FARMACIA MAYOF,32.48413181,-114.7797991
FARMACIA DEL PUEBLO,32.48160868,-114.7797167
FARMACIA BENAVIDES SUC OCTAVA Y REFORMA BCN,32.48076599,-114.7795412
SUPER FARMACIA DE ENSENADA,32.47202439,-114.7784369
FARMACIA DEL MAR,3.24736914,-114.7781282
FARMACIA MODERNA,32.47015977,-114.7778953
FARMACIA SANTA EMA,32.48239277,-114.7774799
FARMACIAS ROMA MAESTROS,32.48239011,-114.7774711
THE ROYAL PHARMACY,32.45130452,-114.7646634
FARMACIA CORTEZ,32.44630371,-114.7612191
FARMACIAS ROMA MARINA,32.46804616,-114.7577731
FARMACIA ROMA INDEPENDENCIA,32.47566702,-114.7551011
FARMACIA MEDICAL ENSENADA,32.46518377,-114.7530237
FARMACIAS ROMA DELANTE,32.43385983,-114.7430191
FARMACIA SAN MARTÍN,32.43757233,-114.7407315
FARMACIA BENAVIDES SUC DELANTE BCN,32.71697431,-114.7302389
FARMACIA PREMIER,32.71699121,-114.7299874
FARMACIA ROMA REFORMA,32.71600976,-114.729943
FARMACIA BENAVIDES SUC FLORESTA Y LOYOLA BCN,32.45921678,-114.7292887
FARMACIAS ROMA PEDRO LOYOLA,32.71808564,-114.7261691
FARMACIA ROMA VISTA HERMOSA,31.68507507,-114.4977162
FARMACIA VILLAS,27.96747903,-114.0464483
FARMACIA DE LA COLONIA,27.97092695,-114.044702
FARMACIA DE LA COLONIA,27.96969083,-114.0409157
ZUFARMACIA,3.13045111,-113.5521552
ZUFARMACIA,31.30346367,-113.5519971
FARMACIAS BENAVIDES SUC AMERICAS CD. JUAREZ CHI,31.30342184,-113.5519847
FARMACIAS BENAVIDES SUC AMERICAS CD. JUAREZ CHI,3.13032272,-113.5519157
FARMACIA GUADALAJARA,31.30445947,-113.5516111
FARMACIA GUADALAJARA,31.30465928,-113.5514539
FARMACIA NACIONAL JUAREZ,3.13320701,-113.5486731
FARMACIA NACIONAL JUAREZ,31.30383524,-113.5471931
FARMACIAS BENAVIDES SUC CHAMIZAL CHI,31.31115712,-113.5464497
FARMACIAS BENAVIDES SUC CHAMIZAL CHI,31.33200863,-113.5464034
FARMACIAS BENAVIDES SUC JUAREZ 6 CHI,31.31126852,-113.5463773
FARMACIAS BENAVIDES SUC JUAREZ 6 CHI,31.30288275,-113.5456214
FARMACIAS BENAVIDES SUC JUAREZ 7 CHI,31.30375188,-113.5440631
FARMACIAS BENAVIDES SUC JUAREZ 7 CHI,31.34532788,-113.5421356
FARMACIAS BENAVIDES SUC PUENTE SANTA FE CHI,31.31658039,-113.5394852
FARMACIAS BENAVIDES SUC PUENTE SANTA FE CHI,31.31731399,-113.5392677
FARMACIAS BENAVIDES SUC CADMIO CHI,31.34176857,-113.5390095
FARMACIAS BENAVIDES SUC CADMIO CHI,31.30695093,-113.5386041
FARMACIAS BENAVIDES SUC SUCURSAL EL PASO CHI,3.13163066,-113.5378403
FARMACIAS BENAVIDES SUC SUCURSAL EL PASO CHI,31.32110705,-113.5369221
FARMACIAS GUADALAJARA,31.33076847,-113.5359157
FARMACIAS GUADALAJARA,31.31949658,-113.5343034
FARMACIAS GUADALAJARA,31.32632088,-113.5214781
FARMACIAS GUADALAJARA,31.34103615,-113.5168358
FARMACIAS BENAVIDES SUC V. CARRANZA - CD.JUAREZ CHI,31.32629675,-113.5040904
FARMACIAS BENAVIDES SUC V. CARRANZA - CD.JUAREZ CHI,31.33555076,-113.5009776
FARMACIAS BENAVIDES SUC JUAREZ 2 CHI,27.64337951,-113.3920445
FARMACIAS BENAVIDES SUC JUAREZ 2 CHI,3.18649227,-112.8471884
FARMACIAS BENAVIDES SUC JUAREZ 5 CHI,31.86874471,-112.8322502
FARMACIAS BENAVIDES SUC JUAREZ 5 CHI,30.80530997,-112.7116932
FARMACIA LA CONFIANZA,3.07135411,-112.1730968
FARMACIA LA CONFIANZA,30.70595367,-112.1686284
FARMACIAS BENAVIDES SUC RIO GRANDE CHI,3.07338596,-112.1675499
FARMACIAS BENAVIDES SUC RIO GRANDE CHI,30.71047043,-112.1650879
FARMACIAS BENAVIDES SUC PASEO DEL TRIUNFO CHI,30.70530275,-112.1647621
FARMACIAS BENAVIDES SUC PASEO DEL TRIUNFO CHI,30.71440149,-112.1615535
FARMACIAS BENAVIDES SUC MINA CHI,30.71133958,-112.1586624
FARMACIAS BENAVIDES SUC MINA CHI,30.71868666,-112.151076
FARMACIA ARCOIRIS,30.71562026,-112.1505714
FARMACIA ARCOIRIS,30.71369538,-112.1501973
FARMACIAS BENAVIDES SUC INSURGENTES CHI,30.71361146,-112.1501871
FARMACIAS BENAVIDES SUC INSURGENTES CHI,24.78945778,-112.1063248
FARMACIAS BENAVIDES SUC TOMAS FERNANDEZ CHI,28.84498523,-111.492275
FARMACIAS BENAVIDES SUC TOMAS FERNANDEZ CHI,28.84069898,-111.478299
FARMACIAS BENAVIDES SUC CALZADA DEL RIO CHI,26.02126727,-111.348341
FARMACIAS BENAVIDES SUC CALZADA DEL RIO CHI,3.05436192,-111.1207717
FARMACIAS BENAVIDES SUC GALGODROMO CHI,30.53553976,-111.1191828
FARMACIAS BENAVIDES SUC GALGODROMO CHI,30.54692014,-111.1169569
FARMACIAS BENAVIDES SUC LA RAZA CHI,3.05394302,-111.113738
FARMACIAS BENAVIDES SUC LA RAZA CHI,29.12154027,-111.0524858
FARMACIA GUADALAJARA,29.12180293,-111.0332634
FARMACIA GUADALAJARA,29.10822087,-111.0291589
FARMACIA DEL HOGAR,29.12270423,-111.0272507
FARMACIA DEL HOGAR,29.08176205,-111.0240309
FARMACIAS GUADALAJARA,29.11870167,-111.0237556
FARMACIAS GUADALAJARA,29.10029664,-111.022597
FARMACIA DE FATIMA,29.09079517,-111.0223429
FARMACIA DE FATIMA,29.08723204,-111.0220798
FARMACIAS ROMMA MANEADERO,29.14458143,-111.0187725
FARMACIA 16 DE SEPTIEMBRE,29.08235402,-111.0120536
FARMACIA 16 DE SEPTIEMBRE,29.08827301,-111.0106205
FARMACIA CRYSTY,29.06167526,-111.0088615
FARMACIA CRYSTY,29.15250486,-111.0072448
MEGA FARMACIAS DE ENSENADA,0.29094125,-110.9995701
FARMACIAS BENAVIDES SUC HERRERA CHI,29.08841027,-110.999154
FARMACIAS BENAVIDES SUC HERRERA CHI,29.10989357,-110.9990484
FARMACIAS BENAVIDES SUC CAMPESTRE CHI,29.11678911,-110.9986717
FARMACIAS BENAVIDES SUC CAMPESTRE CHI,29.14311504,-110.9962387
FARMACIAS GUADALAJARA,29.13908598,-110.9954456
FARMACIAS GUADALAJARA,29.09336793,-110.9943868
FARMACIA GUADALAJARA,29.06818838,-110.9936248
FARMACIA GUADALAJARA,29.12174298,-110.9923215
FARMACIA SANATODO,29.11477354,-110.9922235
FARMACIA SANATODO,29.08488673,-110.9922224
FARMACIAS GUADALAJARA,29.06297989,-110.9919672
FARMACIAS GUADALAJARA,29.06343927,-110.990857
FLORES Y REGALOS ANGELES,29.14445207,-110.9904679
FLORES Y REGALOS ANGELES,29.12177768,-110.988339
FARMACIAS BENAVIDES,29.03561717,-110.9879243
FARMACIAS BENAVIDES,29.11573186,-110.9878429
FARMACIAS BENAVIDES SUC FRESNO CHI,29.14242701,-110.9867441
FARMACIAS BENAVIDES SUC FRESNO CHI,29.08497219,-110.9860394
FARMACIA TLALPAN,29.08173834,-110.9828434
FARMACIA TLALPAN,29.07734839,-110.9813678
FARMACIA LEONEL,29.08412995,-110.9798443
FARMACIA LEONEL,29.08391976,-110.9794784
FARMACIA ELENA,29.12420604,-110.9791582
FARMACIA ELENA,29.09952762,-110.9786284
FARMACIAS BENAVIDES SUC TECNOLOGICO CD. JUAREZ CHI,2.90925954,-110.9774662
FARMACIAS BENAVIDES SUC TECNOLOGICO CD. JUAREZ CHI,29.14924971,-110.9773841
FARMACIAS BENAVIDES SUC PLAZA DE CD. JUAREZ CHI,29.08727858,-110.9765289
FARMACIAS BENAVIDES SUC PLAZA DE CD. JUAREZ CHI,29.07971346,-110.9755547
FARMACIAS BENAVIDES SUC TRES TORRES CHI,29.08709724,-110.9750664
FARMACIAS BENAVIDES SUC TRES TORRES CHI,29.07397386,-110.9745435
FARMA AHORRO,2.91306682,-110.9734752
FARMA AHORRO,2.91156291,-110.9729586
FARMACIAS BENAVIDES SUC 0620 PLAZA ALDABAS CHI,29.11012686,-110.9721456
FARMACIAS BENAVIDES SUC 0620 PLAZA ALDABAS CHI,30.62991131,-110.971757
FARMACIAS GUADALAJARA,29.08133102,-110.9715102
FARMACIAS GUADALAJARA,30.62529394,-110.9700389
FARMACIAS GUADALAJARA,29.03329437,-110.9698954
FARMACIAS GUADALAJARA,29.10300673,-110.9689838
FARMACIAS GUADALAJARA,29.10250494,-110.9688963
FARMACIAS GUADALAJARA,29.06575984,-110.9688115
FARMACIAS BENAVIDES SUC PARTIDO IGLESIAS CHI,29.10249834,-110.9687969
FARMACIAS BENAVIDES SUC PARTIDO IGLESIAS CHI,29.11270864,-110.968525
FARMACIA Y GENERICOS,29.07734421,-110.9683109
FARMACIA Y GENERICOS,2.91171721,-110.967289
FARMACIA MARCE DEL MAR,3.06276399,-110.9669891
FARMACIAS BENAVIDES SUC SATELITE CHI,29.12546826,-110.9666002
FARMACIAS BENAVIDES SUC SATELITE CHI,29.06100388,-110.9665073
FARMACIAS BENAVIDES SUC EL PORVENIR - GITANO CHI,3.06191514,-110.9663118
FARMACIAS BENAVIDES SUC EL PORVENIR - GITANO CHI,29.14539801,-110.9659507
FARMACIAS GUADALAJARA,29.12567102,-110.9656797
FARMACIAS GUADALAJARA,3.06285395,-110.965605
FARMACIA LATINO SATELITE,29.07391312,-110.9653381
FARMACIA LATINO SATELITE,29.06538827,-110.9634251
FARMACIAS BENAVIDES SUC JUPITER II CHI,29.04770708,-110.9632178
FARMACIAS BENAVIDES SUC JUPITER II CHI,29.11345299,-110.9625859
FARMACIA Y ABARROTES KOKIS,29.09320513,-110.9615119
FARMACIA Y ABARROTES KOKIS,29.08490472,-110.9611606
FARMACIAS BENAVIDES SUC AZTECAS CHI,31.29445826,-110.9611192
FARMACIAS BENAVIDES SUC AZTECAS CHI,3.06345212,-110.959584
FARMACIAS GUADALAJARA,31.28985165,-110.9592418
FARMACIAS GUADALAJARA,29.03801952,-110.9586967
FARMACIAS GUADALAJARA,29.10289967,-110.9583962
FARMACIAS GUADALAJARA,2.91262419,-110.9582372
FARMACIAS BENAVIDES SUC GRANJERO CHI,29.10301073,-110.9575456
FARMACIAS BENAVIDES SUC GRANJERO CHI,29.08074994,-110.9569859
FARMACIAS GUADALAJARA,29.08925831,-110.9565187
FARMACIAS GUADALAJARA,29.07576915,-110.9563551
FARMACIA LATINO,29.07775036,-110.9552259
FARMACIA LATINO,29.06073544,-110.9544397
FARMAMEDIC,29.07709346,-110.9542977
FARMAMEDIC,3.12754642,-110.9538148
FARMACIA DEL PUEBLO RFC COVM780704,29.08549259,-110.9536576
FARMACIA DEL PUEBLO RFC COVM780704,29.11492405,-110.9530965
FARMACIA YESSY,29.09651592,-110.9530502
FARMACIA YESSY,29.07733729,-110.9530328
FARMA BELLA,29.10581858,-110.9529605
FARMA BELLA,29.03594924,-110.9529085
FARMACIA LATINO MEDICENTRO,29.06710262,-110.9526948
FARMACIA LATINO MEDICENTRO,29.11418667,-110.9521854
FARMACIAS GUADALAJARA,29.10379366,-110.9513794
FARMACIAS GUADALAJARA,29.12159772,-110.9513624
FARMACIAS BENAVIDES SUC YEPOMERA CHI,29.10347049,-110.9513121
FARMACIAS BENAVIDES SUC YEPOMERA CHI,29.12421782,-110.9509531
FARMACIA  LATINO SAN CARLOS,29.12027946,-110.9509367
FARMACIA  LATINO SAN CARLOS,29.11682582,-110.9509356
FARMACIAS GUADALAJARA,29.10090736,-110.9508989
FARMACIAS GUADALAJARA,29.03509896,-110.9497875
FARMACIAS BENAVIDES SUC 0619 PLAZA MILAN CHI,29.03482526,-110.9488044
FARMACIAS BENAVIDES SUC 0619 PLAZA MILAN CHI,31.26358709,-110.9485521
FARMACIAS BENAVIDES SUC RIBERA LERMA CHI,31.32572822,-110.9474927
FARMACIAS BENAVIDES SUC RIBERA LERMA CHI,29.09780139,-110.9472494
FARMACIAS BENAVIDES SUC PLAZA TIKAL CHI,31.31799887,-110.9470015
FARMACIAS BENAVIDES SUC PLAZA TIKAL CHI,29.09493124,-110.9466022
FARMACIAS BENAVIDES SUC LUCERO CHI,31.32184644,-110.9464555
FARMACIAS BENAVIDES SUC LUCERO CHI,31.32198748,-110.9462539
FARMACIAS BENAVIDES SUC ERENDIRA - ARQUITECTOS CHI,31.32747042,-110.9458805
FARMACIAS BENAVIDES SUC ERENDIRA - ARQUITECTOS CHI,31.33116818,-110.9458245
ABARROTES Y FARMACIA,31.32993644,-110.9456849
ABARROTES Y FARMACIA,31.33150063,-110.9456806
FARMACIAS BENAVIDES SUC MESA CENTRAL CHI,31.32141645,-110.9454237
FARMACIAS BENAVIDES SUC MESA CENTRAL CHI,31.33168293,-110.9451162
FARMACIA NOVA,31.33167777,-110.9449487
FARMACIA NOVA,31.31200743,-110.9449122
FARMACIAS GUADALAJARA,3.13316698,-110.9446894
FARMACIAS GUADALAJARA,31.33115434,-110.9446643
FARMACIAS BENAVIDES SUC LAS TORRES CHI,31.33174436,-110.9442539
FARMACIAS BENAVIDES SUC LAS TORRES CHI,31.33207196,-110.9440022
FARMACIA Y PAPELERIA TUMY,31.31009721,-110.9439893
FARMACIA Y PAPELERIA TUMY,31.33247022,-110.9437778
FARMACIA DEL CARMEN,31.33224052,-110.9437759
FARMACIA LEAL,29.02296055,-110.9431915
FARMACIA ALEX,29.02306919,-110.9422888
FARMACIA DEL CARMEN,31.29867964,-110.9417033
FARMACIAS BENAVIDES SUCURSAL AGUA PRIETA,31.30220354,-110.9396179
FARMACIA SILVIAS,31.30205513,-110.9395353
FARMACIA SAN JORGE,31.30198652,-110.9394955
FARMACIA SAN JORGE,31.30048704,-110.9379058
FARMACIA LA PLAZA,31.29172415,-110.936852
FARMACÍA DEL MAR,29.04960787,-110.9333002
FARMACIA LA PLAZA,31.27342962,-110.9301872
COMERCIAL 3 EN 1,29.01216889,-110.9295509
FARMACIA ESTRELLA MAGNA,31.29572911,-110.928751
FARMACIA SANTA MARIA,2.79469881,-110.9247633
FARMACIA CENTRO,31.30008909,-110.9246748
FARMACIA DE LA SALUD,29.00858253,-110.9241221
FARMACIA SAN MARTIN,27.92530365,-110.9203313
FARMACIA SAN RAUL,27.91970919,-110.9149821
FARMACIAS BENAVIDES SUC DEPORTIVA SON,27.92521617,-110.9121856
FARMACIA QKS,27.92515512,-110.9106101
FARMACIA MAX,27.91931754,-110.8995263
FARMACIAS BENAVIDES SUCUSAL NOGALES II,27.92348276,-110.8936343
FARMACIA SAN BENITO,2.79225023,-110.8927335
FARMACIA DEL CARMEN,2.79235327,-110.8910778
FARMACIA SAN JORGE,29.17899217,-110.8834489
FARMACIA SAN JUAN,27.95855816,-110.816675
FARMACIA VIBE,0.27957117,-110.813356
FARMACIAS GUADALAJARA,2.94265382,-110.3872515
FARMACIA LA PLAZA,29.42693858,-110.3864657
FARMACIA BENAVIDES SUCURSAL FIESTA,24.12866843,-110.343521
FARMACIAS BENAVIDES SUCURSAL PLAZA BAZAR NOGALES,24.14640612,-110.3301932
FARMACIAS SANTIAGOS,24.12928442,-110.3276815
FARMACIA LA 29,24.15228788,-110.3196428
FARMACIA VIBE,24.14677115,-110.3195586
FARMACIAS GUADALAJARA,24.13399534,-110.3121753
FARMACIA LA PLAZA,24.12709162,-110.3116281
FARMACIA RX SUCURSAL BENITO JUAREZ,24.15723396,-110.3109792
FARMACIA COLOSIO,24.15881666,-110.3084174
FARMACIA VIBE,24.05155908,-110.2983421
FARMACIA DE JESUS,30.98358991,-110.2944506
FARMACIAS BENAVIDES SUC AVE. 23 SON,27.63983313,-110.2926969
FARMACIA SAN ANDRES,24.05826374,-110.2918148
FARMACIA SAN JORGE,30.98694101,-110.2873018
FARMACIA EXPRESS,30.99534853,-110.2813384
FARMACIA CAROLINA,30.99241354,-110.2800096
FARMACIA SAN JOSE,30.99394361,-110.270278
FARMACIA GLORIA,2.34478659,-110.2265403
FARMACIA ALICE,23.36569288,-110.1726356
PHARMACY CITY,27.46134954,-110.1150765
FARMACIA PAYLEES,27.35430013,-110.0365429
FARMACIA SONAY,27.48592405,-110.0043068
INTERNACIONAL HARBOR PHARMACY,27.51088472,-109.9862264
FARMACIA ROCKY POINT,27.49123062,-109.973832
FARMACIA VILLEGAS,27.49453585,-109.9636246
FARMACIA MEDS 4 LESS,27.49435981,-109.9630415
FARMACIA MEXICO,27.49096924,-109.961159
FARMACIAS GUADALAJARA,22.90638924,-109.9610237
FARMACIAS GUADALAJARA,27.49394215,-109.9564155
FARMACISA LA PLAZA,27.46601486,-109.954329
FARMACIA SANCHEZ,27.49395676,-109.9539153
FARMACIA BENAVIDES SUCURSAL NIZA,27.49395695,-109.9538827
FARMACIA SAGITARIO,27.45534384,-109.9533975
FARMACIAS BENAVIDES SUCURSAL PASEO DE LOS MAESTROS,27.46448986,-109.9505813
FARMACIAS BENAVIDES SUCURSAL EL GRECO O.F.N.,27.49965232,-109.9500728
FARMACIAS BENAVIDES SUCURSAL REAL DEL ARCO,31.31702938,-109.9469389
BENAVIDES SUCURSAL SAN CARLOS,27.48281959,-109.946658
FARMACIAS BENAVIDES SUCURSAL VILLA SONORA,27.50355113,-109.9454337
FARMACIA GUADALAJARA,27.50376615,-109.9454335
FARMACIA ZAÑUDO,27.50375449,-109.9454335
FARMACIA BROADWAY,27.47424057,-109.9451691
FARMACIA ROSS,27.46494368,-109.942063
FARMACIA BUENAVISTA,22.94113908,-109.9409654
FARMACIA KAYROS,27.49190402,-109.939118
FARMACIAS BENAVIDES SUCURSAL LA CAMPAÑA,27.49172235,-109.9387741
FARMACIAS GUADALAJARA,27.49172226,-109.938769
MINI SUPER DE FARMACIA ROSY,27.43996688,-109.938565
FARMACIAS BENAVIDES SUCURSAL CANANEA,27.49985343,-109.9351145
FARMACIA VIVA,27.50955184,-109.9341059
FARMACIA LA PLAZA,27.49680013,-109.9340345
FARMACIAS GUADALAJARA,27.50950729,-109.9340183
FARMACIA DE DESCUENTO,27.48516447,-109.9327393
FARMACIA LA PLAZA,27.49192447,-109.931832
FARMACIAS BENAVIDES SUC QUIROZ Y MORA SON,27.49382643,-109.9305853
DIVERCIONES EL ANGEL,27.50768082,-109.93057
FARMACIAS BENAVIDES SUCURSAL CABORCA,22.93384551,-109.9300524
FARMACIAS BENAVIDES SUCURSAL DESIERTO,27.46144163,-109.9292853
FARMACIAS BENAVIDES SUC AVENIDA Q. SON,27.46547941,-109.9291338
FARMACIA MARJANE,27.58056456,-109.9289313
FARMACIA LA PLAZA,22.90247325,-109.924921
FARMACIA BENAVIDES SUCURSAL MAGDALENA,27.45504457,-109.917092
FARMACIAS BENAVIDES SUCURSAL OSARIO WARD,22.88200787,-109.9135602
MERCADO PATY,22.88275776,-109.913536
FARMACIAS GUADALAJARA,22.88481522,-109.9133729
FARMACIA MUNGARRO,22.88291998,-109.9128105
FARMACIAS BENAVIDES SUC 0647 DUBLAN,22.88148559,-109.9125008
FARMACIAS BENAVIDES SUC 0647 DUBLAN,22.88308626,-109.9123116
FARMACIA GUADALAJARA,22.88671421,-109.9120486
FARMACIA GUADALAJARA,22.88016835,-109.9113312
OMNILIFE DISTRIBUIDOR INDEPENDIENTE,22.88177264,-109.9107591
OMNILIFE DISTRIBUIDOR INDEPENDIENTE,22.88349431,-109.9090755
FARMACIAS BENAVIDES SUC CASAS GRANDES CHI,27.49194667,-109.9083018
FARMACIAS BENAVIDES SUC CASAS GRANDES CHI,29.99446749,-109.7830926
FARMACIAS BENAVIDES SUC NUEVO CASAS GRANDES CHI,23.10046713,-109.7262041
FARMACIAS BENAVIDES SUC NUEVO CASAS GRANDES CHI,2.30786799,-109.7151515
FARMACIAS BENAVIDES SUC 644 PLAZA NOGALES CHI,23.06135158,-109.7071439
FARMACIAS BENAVIDES SUC 644 PLAZA NOGALES CHI,23.05893652,-109.6936249
FARMACIA GLZ,26.82268409,-109.6444484
FARMACIA ALPHA,26.82666584,-109.6421709
FARMACIA ALPHA,26.82552169,-109.6399724
FARMACIA CLAUDINOR,26.83267658,-109.6399669
FARMACIA CLAUDINOR,26.91013477,-109.6288418
FARMACIA SAN JORGE,26.82525875,-109.6082505
CORPORATIVO PUREX,31.33219848,-109.5604743
FARMACIAS GUADALAJARA,31.33272383,-109.5604725
CORPORATIVO PUREX,31.32766177,-109.5428575
FARMACIAS BENAVIDES SUCURSAL  BOULEVARD MATEOS COA,31.32560886,-109.5426957
FARMACIAS BENAVIDES SUCURSAL AMPLIACION LAS AMERICAS COA,31.31601347,-109.5380515
FARMACIAS GUADALAJARA,31.31972822,-109.5330802
FARMACIA DEL NIÑO 8,31.31632768,-109.5299751
DRUG STORE TIENDAS SAN ANTONIO FARMACIAS,3.13224601,-109.5292395
FARMACIAS BENAVIDES SUCURSAL PUENTE COA,27.08124206,-109.4573773
FARMACIA JOSAD,27.07290182,-109.451266
FARMACIA PLAZA,27.08085361,-109.4512223
MINISUPER Y FARMACIA SAN FRANCISCO DE ASIS,27.07886811,-109.4473759
FARMACIAS BENAVIDES SUCURSAL COAHUILA COA,27.07904077,-109.4465511
FARMACIAS BENAVIDES SUCURSAL ACUÑA COA,27.08463374,-109.4453858
FARMACIAS BENAVIDES SUC. PLAZA ACUNA,27.08074797,-109.4448835
FARMACIAS GUADALAJARA,27.07836249,-109.4443874
FARMACIAS GUADALAJARA,27.06987514,-109.4434201
FARMACIAS BENAVIDES SUCURSAL DEL CARMEN COA,27.06079507,-109.4229355
SUPER FARMACIA DEL NIÑO NUMERO 3,27.07374193,-109.4225381
FARNACIA OMEGA,27.07409095,-109.4187316
FARMACIA MADERA,25.96719954,-109.2967661
FARMACIA MADERA,25.91963558,-109.1759844
FARMACIA ALMA,25.91912926,-109.1752171
FARMACIAS BENAVIDES SUCURSAL PUEBLITOS,26.26954946,-109.036664
FARMACIAS GUADALAJARA,2.57972334,-109.0255085
FARMACIAS GUADALAJARA,25.79458089,-109.0182194
FARMACIAS BENAVIDES SUC VILLA COLONIAL SON,25.80233401,-109.0143276
FARMACIAS GI,25.80136818,-109.0137048
FARMACIA GI CC,25.79867013,-109.0098858
FARMACIAS BENAVIDES SUCURSAL CAMPO VERDE,25.81148785,-109.0093492
FARMACIA GI ROGER,25.79463334,-109.0088336
FARMACIAS GUADALAJARA,25.82104038,-109.0024243
FARMACIA GI,25.79824749,-109.0020792
FARMACIAS GUADALAJARA,25.79757101,-109.0011583
FARMACIAS BENAVIDES SUCURSAL LA PALOMA,25.76357122,-108.9992532
FARMACIA DARA PORTILLO,25.76937767,-108.9953845
BENAVIDES SUCURSAL LOPEZ PORTILLO,25.78630363,-108.9949478
FARMACIA GI MARTINEZ,25.78859032,-108.9942732
FARMACIA BENAVIDES SUC PUERTA REAL SON,25.78933285,-108.9936064
FARMACIA DE AHORRO DE GENERICO,25.78676095,-108.9931016
FARMACIAS GI,25.79176852,-108.9927332
FARMACIA SAN JOSE,25.80130043,-108.9923583
FARMACIAS GUADALAJARA,25.79051237,-108.9898694
FARMACIAS BENAVIDES SUC AV. 13 SON,25.79741936,-108.989779
FARMACIA BENAVIDES SUC PLAZA BENEI SON,25.77019601,-108.9888115
FARMACIAS GUADALAJARA,25.81535689,-108.9883905
FARMACIAS BENAVIDES SUCURSAL IGNACIO SALAZAR,25.77307125,-108.9882629
FARMACIA BUGAMBILIA,2.57732474,-108.9881293
FARMACIAS GENERICOS MONTEVERDE,25.79935963,-108.9838174
FARMACIA GI LAS TORRES,25.80376241,-108.9793501
FARMACIAS BENAVIDES SUCURSAL BUGAMBILIAS,25.78879219,-108.9780066
FARMACIAS PGUADALAJARA,26.22657943,-108.9544495
FARMACIA CRUZ ROSA,27.02417848,-108.9346919
MEDICAMENTOS Y SERVICIOS INTEGRALES DEL NOROESTE,26.02194727,-108.8314593
FARMACIA DERMAFARM,25.75803843,-108.8201966
FARMACIAS BENAVIDES SUC PERINORTE,25.75869015,-108.8197697
FARMACIAS GUADALAJARA,25.75474067,-108.8194576
FARMACIA BENAVIDES SUCURSAL PERIMETRAL CUM,25.75930272,-108.8193686
FARMACIAS GUADALAJARA,26.08288682,-108.7619407
FARMACIAS GUADALAJARA,26.41798371,-108.621368
FARMACIA BENAVIDES SUC COPACABANA SON,2.58027636,-108.4812111
FARMACIA BENAVIDES SUC ISIDRO OLVERA SON,25.73142826,-108.4796492
FARMACIAS BENAVIDES,2.55678705,-108.4775095
FARMACIA BENAVIDES SUC ISRAEL GONZALEZ SON,25.57742076,-108.4702714
FARMACIAS BENAVIDES SUC REFORMA,25.56997121,-108.4702153
FARMACIAS GUADALAJARA,2.55866666,-108.4689105
FARMACIAS GUADALAJARA,25.55427388,-108.4680057
FARMACIAS GUADALAJARA,25.58615507,-108.4668871
FARMACIAS BENAVIDES SUC PITIC,2.55594524,-108.462705
FARMACIA BENAVIDES SUC HERMOSILLO QUIROGA SON,25.58661151,-108.4626235
FARMACIAS BENAVIDES SUCURSAL OLIVARES,25.56363214,-108.4617059
FARMACIAS GUADALAJARA,25.55974592,-108.461512
FARMACIA BENAVIDES SUC MORELOS Y KINO,25.56016054,-108.4613115
FARMACIA BENAVIDES SUC FRANCISCO KINO SON,25.73369271,-108.3432453
FARMACIA BENAVIDES SUC HOSPITAL CHAVEZ- PLAZA BOULEVARD KINO SON,26.70897411,-108.3226718
FARMACIAS FARMAMIN,27.27732335,-108.2797159
FARMACIA BENAVIDES SUC NAYARIT Y YAÑEZ,27.27732335,-108.2797159
FARMACIAS GUADALAJARA,29.68574467,-108.2771271
FARMACIAS GUADALAJARA,29.68574467,-108.2771271
FARMACIA BENAVIDES SUCURSAL PLAZA CONQUISTADOR,25.81659471,-108.229378
FARMACIA BENAVIDES SUC GARMENDIA,25.47761365,-108.1648566
FARMACIA BENAVIDES SUC SAN BERNARDINO,25.36781173,-108.157009
FARMACIAS GUADALAJARA,25.36816561,-108.1568053
FARMACIA BENAVIDES SUC NAVARRETE,29.19035925,-108.1404887
FARMACIA G I,29.19035925,-108.1404887
FARMACIAS GUADALAJARA,25.46004101,-108.0846805
FARMACIAS MARGARITA,25.46033734,-108.0843367
FARMACIA MARGARITA,25.45959937,-108.0827239
FARMACIAS BENAVIDES SUC HOSPITAL HILLO,25.45827597,-108.0816311
FARMACIAS BENAVIDES SUC PASEO LAS QUINTAS SON,25.46108136,-108.0790953
FARMACIA BENAVIDES SUC COLOSIO REAL DE ARCO SON,25.07896766,-108.058102
FARMACIAS GUADALAJARA,25.48168572,-107.9227603
FARMACIAS BENAVIDES SUC LA RIOJA SON,30.42702717,-107.9147199
FARMACIA BENAVIDES SUC PLAZA GALICIA,30.42702717,-107.9147199
FARMACIAS BENAVIDES SUCURSAL FRENTE FRIO,30.41727748,-107.9118162
FARMACIAS BENAVIDES SUC SAHUARIPA,30.41727748,-107.9118162
FARMACIAS GUADALAJARA,30.39569379,-107.9060423
FARMACEUTICA LOS ARCOS,30.39569379,-107.9060423
FARMACIA MARGARITA,30.41274595,-107.8999423
FARMACIA IMMEDICA GI,30.41274595,-107.8999423
FARMACIAS GUADALAJARA,24.76695963,-107.6989581
FARMACIAS GUADALAJARA,24.76778142,-107.6981399
FARMACIA BENAVIDES SUCURSAL SERDAN,24.76728215,-107.6975626
FARMACIAS GUADALAJARA,24.76638831,-107.696076
FARMACIA MÓDULO ISSSTESON SNTE 28,24.76330567,-107.69478
FARMACIAS BENAVIDES SUC LAS GRANJAS,2.48201845,-107.6547808
FARMACIA BENAVIDES SUC REFORMA HERMOSILLO,24.89471881,-107.633577
FARMACIA GI PAL MONTECARLO,0.31782921,-107.6284328
GNC,0.31782921,-107.6284328
FARMACIAS BENAVIDES SUC RIO SONORA M576,24.76900541,-107.5533622
FARMACIAS BENAVIDES SUC DEL RIO CENTRO MEDICO SON,24.76901251,-107.5532788
FARMACIAS GUADALAJARA,2.46576863,-107.5400565
FARMACIA BENAVIDES SUC CAMINO DEL SERI SON,2.47799978,-107.5112291
FARMACIAS GUADALAJARA,0.28568735,-107.5067497
FARMACIA MAXFARMA,0.28568735,-107.5067497
FARMACIA BENAVIDES SUC LOS VIÑEDOS SON,28.54739579,-107.4831411
FARMACIA BENAVIDES SUC VILDOSOLA SON,28.54739579,-107.4831411
FARMACIA BENAVIDES SUC PLAZA DEL REY,24.77518932,-107.4763387
FARMACIAS GUADALAJARA,24.76672242,-107.4689152
FARMACIA BENAVIDES SUC Y GRIEGA,24.77825967,-107.4606364
FARMACIA GENERICOS GI,0.24769256,-107.4573676
FARMACIA ARCOIRIS,24.80725414,-107.4559778
FARMACIAS GENERICOS GI,24.80725256,-107.4559612
FARMACIAS BENAVIDES SUC PERIFERICO SUR,24.77036934,-107.4553879
FARMACIA GENERICOS,24.76296534,-107.454781
FARMACIAS GUADALAJARA,29.84804308,-107.4541198
FARMACIA BENAVIDES SUCURSAL XOLOTL,29.84804308,-107.4541198
FARMACIAS GI DARA,24.82651652,-107.4524058
FARMACIA BENAVIDES SUC NUEVO HERMOSILLO SON,24.81977308,-107.452085
FARMACIAS GUADALAJARA,24.81938985,-107.4493305
FARMACIA GAM,24.79009825,-107.443923
FARMACIA SAN ISIDRO,24.81769725,-107.44002
FARMACIA VIANNA,24.81773457,-107.4399746
FARMACIA VIANNA,0.24779531,-107.4388446
FARMACIA GUADALAJARA,24.77305001,-107.4367917
FARMACIA GUADALAJARA,24.75497069,-107.434058
FARMACIA GUADALAJARA,0.24754968,-107.434057
FARMACIA GUADALAJARA,2.47531642,-107.4336885
FARMACIA MACR,24.82521583,-107.4333232
FARMACIA MACR,24.76440323,-107.4319912
FARMACIAS GUADALAJARA,24.76432457,-107.4319561
FARMACIAS GUADALAJARA,0.24751448,-107.429028
FARMACIAS BENAVIDES SUC PASEO DEL REAL CHI,24.75071073,-107.428918
FARMACIAS BENAVIDES SUC PASEO DEL REAL CHI,24.77425551,-107.4278978
FARMACIA GUADALAJARA,24.78158955,-107.427834
FARMACIA GUADALAJARA,24.84661147,-107.4275595
FARMACIAS BENAVIDES SUC CHIHUAHUA 2000 CHI,24.80003897,-107.4274726
FARMACIAS BENAVIDES SUC CHIHUAHUA 2000 CHI,24.77520268,-107.4183368
FARMACIAS GUADALAJARA,24.84421855,-107.4178632
FARMACIAS GUADALAJARA,24.82064212,-107.4177043
FARMACIAS BENAVIDES SUC PASEO DE LA UNIVERSIDAD CHI,24.83535694,-107.4156172
FARMACIAS BENAVIDES SUC PASEO DE LA UNIVERSIDAD CHI,24.84293624,-107.4132951
FARMACIAS GUADALAJARA,24.82736004,-107.4125787
FARMACIAS GUADALAJARA,24.79386684,-107.410114
FARMACIA DEL PUEBLO MATRIZ,24.78603553,-107.407516
FARMACIAS GUADALAJARA,24.80000018,-107.4061036
CORPORATIVO PUREX,24.80192912,-107.4024291
FARMACIAS BENAVIDES SUCURSAL  PRESIDENCIA COA,24.79790022,-107.4016211
FARMACIAS BENAVIDES SUCURSAL SAN JOSE COA,24.79673865,-107.401419
FARMACIAS BENAVIDES SUCURSAL GALEANA COA,2.47588311,-107.4007256
FARMACIAS GUADALAJARA,24.82953698,-107.3991353
FARMACIAS GUADALAJARA,24.80460977,-107.3961861
FARMACIAS GUADALAJARA,24.81916006,-107.3956074
SUC PIEDRAS NEGRAS,24.59083189,-107.3942819
FARMACIAS BENAVIDES SUC OMA CHIHUAHUA CHI,24.80385071,-107.3940334
FARMACIAS BENAVIDES SUC OMA CHIHUAHUA CHI,24.86452688,-107.3921806
CORPORATIVO PUREX,24.77875101,-107.3915291
FARMACIAS GUADALAJARA,24.82402169,-107.3903993
FARMACIA GUADALAJARA,24.59074726,-107.3903669
FARMACIA MEDIKALA,0.24590729,-107.3899882
FARMACIA MEDIKALA,24.82161659,-107.3898826
FARMACIA GUADALAJARA,2.47945234,-107.3863214
FARMACIA GUADALAJARA,24.83724513,-107.3853396
FARMACIA GUADALAJARA,24.81188345,-107.3828516
FARMACIA GUADALAJARA,24.75304628,-107.382694
FARMACIAS BENAVIDES SUCURSAL CARRANZA PIEDRAS NEGRAS COA,24.80238137,-107.3806795
FARMACIAS BENAVIDES SUCURSAL ROMAN CEPEDA COA,24.80182373,-107.380111
FARMACIAS GUADALAJARA,24.76613462,-107.3777259
FARMACIA DE GENERICOS INTERCAMBIABLES,24.80738488,-107.3758167
FARMACIA DE GENERICOS INTERCAMBIABLES,24.79103709,-107.372888
FARMACIAS DEL PUEBLO,24.82359844,-107.370443
CORPORATIVO PUREX,24.81778482,-107.3690074
CORPORATIVO PUREX,24.81487727,-107.3677807
FARMACIAS GUADALAJARA,24.79816459,-107.365732
FARMACIAS GUADALAJARA,24.32085438,-107.3656551
FARMACIAS GUADALAJARA,24.31278636,-107.3647892
FARMACIAS GUADALAJARA,24.81745709,-107.3636328
FARMACIA GUADALAJARA,24.32351956,-107.3626475
FARMACIAS BENAVIDES SUCURSAL INDUSTRIAL COA,24.84943512,-107.3603288
FARMACIAS BENAVIDES SUCURSAL MERCO PIEDRAS NEGRAS COA,24.80219542,-107.3577346
FARMACIAS BENAVIDES SUC UNIVERSIDAD OXFORD CHI,24.79982692,-107.349061
FARMACIAS BENAVIDES SUC UNIVERSIDAD OXFORD CHI,24.78999478,-107.3477068
FARMACIA SANTA ROSA,28.48235746,-107.3336719
FARMACIAS GUADALAJARA,28.48235746,-107.3336719
FARMACIAS GUADALAJARA,28.47809181,-107.3313628
FARMACIAS BENAVIDES SUC LAGOS CHI,28.47809181,-107.3313628
FARMACIAS BENAVIDES SUC LAGOS CHI,24.29371762,-107.1583039
CORPORATIVO PUREX,24.29156363,-107.1504476
FARMACIA ECONOMICA,24.29123898,-107.1503741
FARMACIAS GUADALAJARA,26.82127071,-107.0689774
FARMACIAS GUADALAJARA,26.82127071,-107.0689774
FARMACIAS GUADALAJARA,28.77555154,-107.0074449
FARMACIAS GUADALAJARA,28.77555154,-107.0074449
FARMACIAS GUADALAJARA,28.39377284,-106.8851084
FARMACIAS GUADALAJARA,28.39377284,-106.8851084
FARMACIAS GUADALAJARA,28.41709141,-106.8801992
FARMACIAS GUADALAJARA,28.41709141,-106.8801992
FARMACIAS GUADALAJARA,28.39940089,-106.8796678
FARMACIAS GUADALAJARA,28.39940089,-106.8796678
FARMACIA GUADALAJARA,28.40242767,-106.8719415
FARMACIA GUADALAJARA,28.40242767,-106.8719415
FARMACIA GUADALAJARA,28.40884318,-106.8716252
FARMACIA GUADALAJARA,28.40884318,-106.8716252
FARMACIAS BENAVIDES SUC PIMENTEL - AMERICA CHI,28.41927648,-106.8709413
FARMACIAS BENAVIDES SUC PIMENTEL - AMERICA CHI,28.41927648,-106.8709413
FARMACIAS GUADALAJARA,28.40775627,-106.8665308
FARMACIAS GUADALAJARA,28.40775627,-106.8665308
FARMACIA GUADALAJARA,28.40708805,-106.8659613
FARMACIA GUADALAJARA,28.40708805,-106.8659613
FARMACIAS GUADALAJARA,28.40714176,-106.8655474
FARMACIAS GUADALAJARA,28.40714176,-106.8655474
FARMACIAS GUADALAJARA,28.40903198,-106.8645009
FARMACIAS GUADALAJARA,28.40903198,-106.8645009
FARMACIA GUADALAJARA,28.40797113,-106.8624374
FARMACIA GUADALAJARA,28.40797113,-106.8624374
FARMACIA MEJORA TU VIDA,28.41023889,-106.8588557
FARMACIA MEJORA TU VIDA,28.41023889,-106.8588557
CORPORATIVO PUREX,28.41014459,-106.8582186
FARMACIAS GUADALAJARA,28.41014459,-106.8582186
FARMACIAS GUADALAJARA,28.41436237,-106.8565958
FARMACIA LA REGIONAL,28.41436237,-106.8565958
FARMACIA LA REGIONAL,28.40795294,-106.8433779
FARMACIAS BENAVIDES SUC DIVISION DEL NORTE CHI,28.40795294,-106.8433779
FARMACIAS BENAVIDES SUC DIVISION DEL NORTE CHI,24.41240875,-106.6906771
FARMACIAS GUADALAJARA,25.21153803,-106.572206
FARMACIAS GUADALAJARA,25.12314683,-106.546091
FARMACIAS BENAVIDES SUC MIRADOR CHI,25.12152852,-106.5458697
FARMACIAS BENAVIDES SUC MIRADOR CHI,31.72287039,-106.5316074
FARMACIAS GUADALAJARA,31.72287039,-106.5316074
FARMACIAS GUADALAJARA,31.74931192,-106.5233804
BOTICA CENTRAL,31.74931192,-106.5233804
BOTICA CENTRAL,31.71214689,-106.5107487
FARMACIA MORELOS,31.71214689,-106.5107487
FARMACIA MORELOS,31.74363346,-106.5039373
FARMACIA MORELOS,31.74363346,-106.5039373
FARMACIA MORELOS,31.73331794,-106.4927835
FARMACIAS BENAVIDES SUC DEZA Y ULLOA CHI,31.73331794,-106.4927835
FARMACIAS BENAVIDES SUC DEZA Y ULLOA CHI,31.73755033,-106.4870726
FARMACIA DE GENRICOS INTERCAMBIABLES,31.73755033,-106.4870726
FARMACIA DE GENRICOS INTERCAMBIABLES,31.73897294,-106.4865942
FARMACIA SANTA FE,31.73897294,-106.4865942
FARMACIA SANTA FE,31.74548759,-106.4862759
FARMACIAS BENAVIDES SUC CHIHUAHUA 2 CHI,31.74548759,-106.4862759
FARMACIAS BENAVIDES SUC CHIHUAHUA 2 CHI,31.74424744,-106.486001
FARMACIAS GUADALAJARA,31.74424744,-106.486001
FARMACIAS GUADALAJARA,31.74377925,-106.4858635
FARMACIAS BENAVIDES SUC 0672 20 DE NOVIEMBRE,31.74377925,-106.4858635
FARMACIAS BENAVIDES SUC 0672 20 DE NOVIEMBRE,31.73890252,-106.4857763
FARMACIAS GUADALAJARA,31.73890252,-106.4857763
FARMACIAS GUADALAJARA,31.73934821,-106.4853355
FARMACIAS BENAVIDES SUC PARQUE LERDO CHI,31.73934821,-106.4853355
FARMACIAS BENAVIDES SUC PARQUE LERDO CHI,31.70781155,-106.4821214
FARMACIAS BENAVIDES SUC MARIA LUISA CHI,31.70781155,-106.4821214
FARMACIAS BENAVIDES SUC MARIA LUISA CHI,31.72937195,-106.4810886
FARMACIAS BENAVIDES SUC PLAZA LOS ANDES CHI,31.72937195,-106.4810886
FARMACIAS BENAVIDES SUC PLAZA LOS ANDES CHI,31.67091772,-106.4747155
FARMACIAS GUADALAJARA,31.67091772,-106.4747155
FARMACIAS GUADALAJARA,23.28609318,-106.4710131
FARMACIAS GUADALAJARA,31.73308912,-106.4638147
FARMACIAS GUADALAJARA,31.73308912,-106.4638147
FARMACIA GUADALAJARA,31.72445198,-106.462755
FARMACIA GUADALAJARA,31.72445198,-106.462755
FARMACIA GUADALAJARA,23.25923235,-106.4627134
FARMACIA GUADALAJARA,31.73775901,-106.4592033
FARMACIAS GUADALAJARA,31.73775901,-106.4592033
FARMACIAS GUADALAJARA,31.74885174,-106.4575841
FARMACIA BOULEVARD,31.74885174,-106.4575841
FARMACIA BOULEVARD,31.72251472,-106.4568117
FARMACIA GUADALAJARA,31.72251472,-106.4568117
FARMACIA GUADALAJARA,31.74479574,-106.4566125
FARMACIAS BENAVIDES SUC NUEVA ESPAÑA CHI,31.74479574,-106.4566125
FARMACIAS BENAVIDES SUC NUEVA ESPAÑA CHI,31.74734533,-106.4557396
FARMACIAS BENAVIDES SUC SENDA RELIZ CHI,31.74734533,-106.4557396
FARMACIAS BENAVIDES SUC SENDA RELIZ CHI,31.67277534,-106.4540146
FARMACIA ANGELES,31.67277534,-106.4540146
FARMACIA ANGELES,31.74642296,-106.4532874
FARMACIA PREMUIM,31.74642296,-106.4532874
FARMACIA PREMUIM,31.71382237,-106.4514763
FARMACIAS BENAVIDES SUC LA SIERRA CHI,31.71382237,-106.4514763
FARMACIAS BENAVIDES SUC LA SIERRA CHI,3.17162339,-106.4512843
FARMACIA LIBERTAD,3.17162339,-106.4512843
FARMACIA LIBERTAD,31.72018179,-106.4509397
ASOCIACION GANADERA LOCAL DE GUERRERO,31.72018179,-106.4509397
ASOCIACION GANADERA LOCAL DE GUERRERO,23.24385235,-106.4507863
FARMACIAS GUADALAJARA,31.72838281,-106.4504064
FARMACIA VAZQUEZ,31.72838281,-106.4504064
FARMACIA VAZQUEZ,31.73679846,-106.448086
XOCO FARMACIAS,31.73679846,-106.448086
XOCO FARMACIAS,23.24213161,-106.4478102
FARMACIA LA ORIGINAL,31.70721582,-106.4467978
FARMACIA LA ORIGINAL,31.70721582,-106.4467978
FARMACIA SAN ANDRES,23.27209097,-106.4459555
FARMACIAS GUADALAJARA,31.73678762,-106.4458688
FARMACIAS BENAVIDES SUC 0741 NAVA COA,31.73678762,-106.4458688
FARMACIAS BENAVIDES SUC 0648 EX AGRICOLA SAN ANTONIO CHI,31.65695147,-106.4436909
FARMACIAS BENAVIDES SUC 0648 EX AGRICOLA SAN ANTONIO CHI,31.65695147,-106.4436909
FARMACIA GUADALAJARA,31.72170323,-106.4433799
FARMACIA GUADALAJARA,31.72170323,-106.4433799
FARMACIAS GUADALAJARA,23.24203221,-106.4430005
FARMACIAS GUADALAJARA,3.17377606,-106.4407392
FARMACIAS BENAVIDES SUC TREBOL CHI,3.17377606,-106.4407392
FARMACIAS BENAVIDES SUC TREBOL CHI,31.68571792,-106.4361495
FARMACIAS GUADALAJARA,31.68571792,-106.4361495
FARMACIAS GUADALAJARA,2.32378133,-106.4354596
FARMACIAS BENAVIDES SUC CUAUHTEMOC CHI,31.72104627,-106.4353608
FARMACIAS BENAVIDES SUC CUAUHTEMOC CHI,31.72104627,-106.4353608
FARMACIA AVENIDA,23.23870047,-106.4332588
FARMACIA AVENIDA,23.26112974,-106.4332307
SERVICIO QUIROFARMARMACEUTICOS SIERRA,3.16837668,-106.4331849
SERVICIO QUIROFARMARMACEUTICOS SIERRA,3.16837668,-106.4331849
FARMACIA SMS,23.24687078,-106.4328108
FARMACIA SMS,31.73914819,-106.430298
FARMACIA GUADALAJARA,31.73914819,-106.430298
FARMACIA GUADALAJARA,31.60273926,-106.4281895
FARMACIAS GUADALAJARA,31.60273926,-106.4281895
FARMACIAS GUADALAJARA,2.32459598,-106.4280654
FARMACIAS GUADALAJARA,23.25860141,-106.4270099
FARMACIAS GUADALAJARA,31.68251793,-106.4247725
BOTICA CENTRAL FUTUFARMO,31.68251793,-106.4247725
BOTICA CENTRAL FUTUFARMO,31.70134348,-106.4247722
FARMACIAS GUADALAJARA,31.70134348,-106.4247722
FARMACIAS GUADALAJARA,31.70203771,-106.4247541
FARMACIA GRAN MILAGRO,31.70203771,-106.4247541
FARMACIA GRAN MILAGRO,23.25591247,-106.4245273
FARMACIA BENAVIDES SUC ABASOLO ALLENDE,23.20226584,-106.4231867
FARMACIAS GUADALAJARA,23.28458442,-106.42274
FARMACIAS BENAVIDES SUCURSAL ALLENDE COA,23.19550642,-106.4218541
FARMACIA GUADALAJARA,23.22673491,-106.4215213
FARMACIA GUADALAJARA,23.26440725,-106.4214266
FARMACIAS BENAVIDES SUC MEOQUI CHI,23.28475771,-106.4214103
FARMACIAS BENAVIDES SUC MEOQUI CHI,23.23542365,-106.4211299
FARMACIA TRINIIDAD,23.21119551,-106.4209956
FARMACIA SIMI,23.20267614,-106.4206404
FARMACIA SIMI,23.20069232,-106.4204183
FARMACIAS GUADALAJARA,23.22466488,-106.4200703
FARMACIAS GUADALAJARA,23.24419315,-106.4194426
FARMACIA GUADALAJARA,23.21357046,-106.4193735
FARMACIA GUADALAJARA,23.22283243,-106.4162041
FARMACIAS BENAVIDES SUC PLAZA DEL RIO SAN PEDRO CHI,31.71336271,-106.4156605
FARMACIAS BENAVIDES SUC PLAZA DEL RIO SAN PEDRO CHI,31.71336271,-106.4156605
FARMACIAS BENAVIDES SUC DELICIAS CHI,23.20935891,-106.4153747
FARMACIAS BENAVIDES SUC DELICIAS CHI,31.65711794,-106.4139389
FARMACIA DE GENERICOS,31.65711794,-106.4139389
FARMACIA DE GENERICOS,31.73265937,-106.4135956
FARMACIAS BENAVIDES SUC REGIS CHI,31.73265937,-106.4135956
FARMACIAS BENAVIDES SUC REGIS CHI,31.69945322,-106.4126702
FARMACIAS BENAVIDES SUC EL PARQUE CHI,31.69945322,-106.4126702
FARMACIAS BENAVIDES SUC EL PARQUE CHI,31.64381434,-106.4123984
FARMACIAS GUADALAJARA,31.64381434,-106.4123984
FARMACIAS GUADALAJARA,23.25168072,-106.4121144
FARMACIA GUADALAJARA,23.26710817,-106.4114944
FARMACIA GUADALAJARA,23.27041228,-106.4110276
FARMACIAS GUADALAJARA,23.25297469,-106.4103489
FARMACIAS GUADALAJARA,31.71253333,-106.4098821
FARMACIAS BENAVIDES SUC FERNANDO BAEZA CHI,31.71253333,-106.4098821
FARMACIAS BENAVIDES SUC FERNANDO BAEZA CHI,31.71242996,-106.4097838
FARMACIAS BENAVIDES,31.71242996,-106.4097838
FARMACIAS BENAVIDES,3.16652315,-106.4084915
FARMACIAS GUADALAJARA,3.16652315,-106.4084915
FARMACIAS GUADALAJARA,31.62090278,-106.4079527
FARMACIA Y REGALOS GABY,31.62090278,-106.4079527
FARMACIA ANGEL,23.26500698,-106.4074464
FARMACIA DEL DESCUENTO,3.16441273,-106.4063465
APLICAFARMA SUCURSAL GUERRERO NEGRO,3.16441273,-106.4063465
FARMACIA SAN MARTIN,31.69425336,-106.4044105
FARMACIA SAN RAMON,31.69425336,-106.4044105
FARMACIAS BENAVIDES SUCURSAL EMPALME,31.69146514,-106.403609
FARMACIAS GUADALAJARA,31.69146514,-106.403609
FARMACIAS IGUALES,31.59801404,-106.4034837
FARMACIAS BENAVIDES SUC PLAZA MIA COA,31.59801404,-106.4034837
FARMACIAS GUADALAJARA,31.63637111,-106.4011909
FARMACIAS BENAVIDES SUCURSAL PLAZA LA JOYA,31.63637111,-106.4011909
FARMACIA BENAVIDES SUCURSAL LAS DELICIAS,31.73190301,-106.4003891
FARMACIAS GUADALAJARA,31.73190301,-106.4003891
FARMACIA BENAVIDES SUCURSAL GUAYMAS,23.23801094,-106.4001565
FARMACIA DEL PUEBLO,23.27960414,-106.3999514
FARMACIAS GUADALAJARA,31.63616704,-106.3998239
FARMACIA SAN LUIS,31.63616704,-106.3998239
FARMACIAS BENAVIDES SUC 0719 AGUIJITA COA,23.22755422,-106.3985075
FARMACIASS IGUALES MUZQUIZ,23.24882161,-106.3981351
FARMACIAS GUADALAJARA,23.25944584,-106.3966453
FARMACIAS BENAVIDES SUC FUNDADORES SABINAS COA,31.57353038,-106.3959139
FARMACIAS BENAVIDES SUC PLAZA SABINAS COA,31.57353038,-106.3959139
BROTHERHOOD,31.69833264,-106.3938359
FARMACIAS GUADALAJARA,31.69833264,-106.3938359
FARMACIAS BENAVIDES SUC CENTRO MEDICO SABINAS COA,31.64148685,-106.3928488
FARMACIAS BENAVIDES SUCURSAL SABINAS COAHUILA COA,31.64148685,-106.3928488
FARMACIA Y REGALOS,31.73261535,-106.390921
FARMACIAS GUADALAJARA,31.73261535,-106.390921
FARMACIAS GUADALAJARA,3.16595499,-106.3901553
FARMACIA Y CONSULTORIO SAGRADO CORAZON,3.16595499,-106.3901553
FARMACIA Y CONSULTORIO SAGRADO CORAZON,2.32645605,-106.3891783
FARMACIAS BENAVIDES SUC LAGUNITA CAMARGO CHI,31.69924707,-106.3885627
FARMACIAS BENAVIDES SUC LAGUNITA CAMARGO CHI,31.69924707,-106.3885627
FARMACIA OASIS,31.62585043,-106.3876734
FARMACIA OASIS,31.62585043,-106.3876734
FARMACIA MISCELANEA,23.24656241,-106.3873562
FARMACIA MISCELANEA,23.23991764,-106.3859291
FARMACIA LICHITA,31.70012931,-106.3825965
FARMACIA ANABEL,31.70012931,-106.3825965
FARMACIAS BENAVIDES SUCURSAL ESPERANZA,23.25940735,-106.3805142
FARMACIAS GUADALAJARA,23.26317418,-106.3787223
FARMACIAS GENYSIM,23.26234977,-106.3787167
MI CLUB DE NUTRICION PROVIDENCIA,31.61782554,-106.3778944
FARMACIAS GUADALAJARA,31.61782554,-106.3778944
FARMACIA GUADALAJARA,31.64642043,-106.3753348
FARMACIA CALDERON,31.64642043,-106.3753348
FARMACIAS BENAVIDES SUCURSAL RIO YAQUI,3.16942171,-106.37443
FARMACIA CALDERON,3.16942171,-106.37443
FARMACIAS BENAVIDES SUCURSAL CHAPULTEPEC II,23.26808586,-106.3741163
FARMACIAS BENAVIDES SUC CHAPULTEPEC SON,31.68454569,-106.3731542
FARMACIAS BENAVIDES SUC ESPERANZA LL SON,31.68454569,-106.3731542
FARMACIAS GUADALAJARA,31.62862499,-106.372814
FARMACIA CALDERON,31.62862499,-106.372814
FARMACIA CALDERON,23.22437725,-106.3716902
FARMACIAS GUADALAJARA,31.68015662,-106.3715262
FARMACIA GUADALAJARA,31.68015662,-106.3715262
FARMACIA SAN RAMÓN,31.62680526,-106.3705836
FARMACIA CALDERON,31.62680526,-106.3705836
FARMACIA LAS ESPUELAS,3.16416085,-106.3684744
FARMACIAS CALDERON,3.16416085,-106.3684744
BENAVIDES SUCURSAL CATEDRAL,31.67909733,-106.3639646
FARMACIA CALDERON,31.67909733,-106.3639646
FARMACIA SANTA ISABEL,31.66408294,-106.3638889
FARMACIA BENAVIDES SUC MACLOVIO HERRERA,31.66408294,-106.3638889
FARMACIAS GUADALAJARA,31.60441521,-106.3604308
FARMCACIA Y MINI SÚPER ALEJANDRA,31.60441521,-106.3604308
FARMACIA BENAVIDES SUC AMBERES,31.63784142,-106.3593042
FARMACIA DEL NIÑO,31.63784142,-106.3593042
FARMACIA BONAVIDA,31.60104335,-106.3571378
FARMACIA GUADALAJARA,31.60104335,-106.3571378
FARMACIAS GUADALAJARA,31.64507756,-106.3571288
FARMACIAS BENAVIDES SUCURSAL NAINARI,31.64507756,-106.3571288
FARMACIAS GUADALAJARA,31.64790532,-106.3553551
FARMACIA CALDERON,31.64790532,-106.3553551
FARMACIAS BENAVIDES SUC GONZALEZ TAM,31.60549676,-106.3470558
FARMACIAS GUADALAJARA,31.60549676,-106.3470558
FARMACIAS S M DEL NORTE,31.62593345,-106.3248947
FARMACIA CALDERON,31.62593345,-106.3248947
FARMACIAS GUADALAJARA,23.18726193,-106.2200821
FARMACIAS BENAVIDES SUCURSAL SINALOA,2.31893826,-106.2195947
FARMACIA SAN JOSE,23.18944678,-106.209732
FARMACIAS GUADALAJARA,23.24302601,-106.2065018
FARMACIAS GUADALAJARA,28.74843945,-106.1499233
FARMACIAS BENAVIDES SUCURSAL AV. KINO,28.74843945,-106.1499233
FARMACIAS GUADALAJARA,28.71619862,-106.1496062
ESTANQUILLO CISNEROS,28.71619862,-106.1496062
FARMACIA S M DEL NORTE,28.70474051,-106.1486807
FARMACIA CALDERON,28.70474051,-106.1486807
FARMACIA CALDERON,28.72240115,-106.1480134
FARMACIA CALDERON,28.72240115,-106.1480134
FARMACIA CALDERON,28.70118719,-106.1430915
DROGUERIA SI FARMA,28.70118719,-106.1430915
FARMACIA SAN FELIPE,28.68362834,-106.1394395
FARMACIAS BENAVIDES SUC SAN ANTONIO TAM,28.68362834,-106.1394395
FARMACIA CALDERON,28.74282315,-106.138528
FARMACIA MY SIMILAR,28.74282315,-106.138528
FARMACIAS GUADALAJARA,28.67389495,-106.1347354
FARMACIAS GUADALAJARA,28.67389495,-106.1347354
FARMACIAS GUADALAJARA,28.66502103,-106.1312877
FARMACIA DEL NORTE,28.66502103,-106.1312877
FARMACIAS GUADALAJARA,28.74988001,-106.1299574
FARMACIAS GUADALAJARA,28.74988001,-106.1299574
FARMACIAS GUADALAJARA,28.72277273,-106.12877
FARMACIAS BENAVIDES SUCURSAL CAMPECHE CAJEME,28.72277273,-106.12877
FARMACIAS BENAVIDES SUC LOPEZ LARA TAM,28.74662893,-106.1275525
FARMACIAS GUADALAJARA,28.74662893,-106.1275525
FARMACIA CALDERON,28.74082493,-106.1249955
FARMACIAS GUADALAJARA,28.74082493,-106.1249955
FARMACIA CALDERON,28.72520788,-106.1229605
FARMACIA CALDERON,28.72520788,-106.1229605
FARMACIAS GUADALAJARA,28.70086627,-106.1225981
FARMACIAS GUADALAJARA,28.70086627,-106.1225981
FARMACIAS BENAVIDES SUC VIVEROS TAM,28.70076827,-106.1225057
FARMACIAS GUADALAJARA,28.70076827,-106.1225057
FARMACIA CALDERON,2.86076539,-106.1153555
FARMACIA CALDERON,2.86076539,-106.1153555
FARMACIA CALDERON,28.65644281,-106.1151043
FARMACIAS BENAVIDES SUCURSAL RAMIREZ,28.65644281,-106.1151043
FARMACIAS BENAVIDES SUC NUEVO LEON TAM,2.86517154,-106.1149834
FARMACIA CALDERON,2.86517154,-106.1149834
FARMACIAS GUADALAJARA,28.60794859,-106.1147565
FARMACIAS GUADALAJARA,28.60794859,-106.1147565
FARMACIAS BENAVIDES SUC CAMPECHE TAM,28.64429319,-106.1122566
FARMACIA CALDERON,28.64429319,-106.1122566
SUPER Y FARMACIA,28.64382468,-106.1122234
FARMACIA ELISA,28.64382468,-106.1122234
SUPER Y FARMACIA LA ESPERANZA,28.64393133,-106.1114708
FARMACIAS CALDERON,28.64393133,-106.1114708
FARMACIAS GI,28.65276258,-106.1096111
FARMACIA JALISCO,28.65276258,-106.1096111
FARMACIAS GUADALAJARA,28.62453917,-106.1055305
FARMACIAS BENAVIDES SUCURSAL DONATO GUERRA,28.62453917,-106.1055305
FARMACIAS GUADALAJARA,28.60103346,-106.1033611
AM FARMACIA,28.60103346,-106.1033611
FARMACIA POPULAR,28.61974901,-106.1020839
FARMACIAS BENAVIDES SUC RUSSO SON,28.61974901,-106.1020839
FARMACIAS GUADALAJARA,28.65330554,-106.0989683
FARMACIA ESPERANZA,28.65330554,-106.0989683
FARMACIAS GUADALAJARA,0.28684406,-106.0984384
FARMACIA BENAVIDES SUCURSAL PROLONGACION MONTERREY,0.28684406,-106.0984384
FARMACIA CALDERON,28.69616274,-106.0976333
FARMACIA CALDERON,28.69616274,-106.0976333
FARMACIAS GUADALAJARA,28.63673835,-106.0961486
FARMACIAS BENAVIDES SUCURSAL DR. NORMAN,28.63673835,-106.0961486
FARMACIA CALDERON,28.60573595,-106.0948437
FARMACIAS GUADALAJARA,28.60573595,-106.0948437
FARMACIAS CALDERON,28.64718013,-106.0900638
FARMACIAS GUADALAJARA,28.64718013,-106.0900638
FARMACIA CALDERON,28.66328504,-106.0890538
FARMACIAS GUADALAJARA,28.66328504,-106.0890538
FARMACIA CALDERON,28.63179813,-106.0890189
FRAMACIA YZA,28.63179813,-106.0890189
FARMACIA SAN MIGUEL,28.62844649,-106.0867044
FARMACIA SAN MIGUEL,28.62844649,-106.0867044
FARMACIA SANTOS,28.64245741,-106.0861007
FARMACIAS ANITA,28.64245741,-106.0861007
FARMACIA S.M. DEL NORTE,2.86273472,-106.0851049
FARMACIAS BENAVIDES SUC JIMENEZ CHI,2.86273472,-106.0851049
FARMACIAS BENAVIDES SUC JIMENEZ CHI,28.64884737,-106.0834113
FARMACIA BETHESDA,28.64884737,-106.0834113
FARMACIAS GUADALAJARA,28.62097263,-106.08131
FARMACIAS GUADALAJARA,28.62097263,-106.08131
FARMACIA NATURISTA NUM. 2,28.63850824,-106.0803578
FARMACIA NATURISTA NUM. 2,28.63850824,-106.0803578
SUPER FARMACIA 4 HERMANOS,28.63648718,-106.0784133
SUPER FARMACIA 4 HERMANOS,28.63648718,-106.0784133
FARMACIAS BENAVIDES SUCURSAL MINA NOVAJOA,28.64285997,-106.0780981
FARMACIA YZA SUCURSAL CORREGIDORA,28.64285997,-106.0780981
FARMACIAS GUADALAJARA,28.64286454,-106.0779821
FARMAPRONTO,28.64286454,-106.0779821
BENAVIDES SUCURSAL NAVOJOA,28.63515499,-106.0774494
FARMAPRONTO,28.63515499,-106.0774494
FARMACIAS GUADALAJARA,28.66321624,-106.0751542
FARMACIA DE GENERICOS BOJORQUEZ,28.66321624,-106.0751542
FARMACIAS GUADALAJARA,28.66319695,-106.0751477
FARMACIAS GUADALAJARA,28.66319695,-106.0751477
FARMACIAS BENAVIDES SUCURSAL TALAMANTES,28.63004374,-106.0750812
FARMACIAS GUADALAJARA,28.63004374,-106.0750812
FARMA TODO,28.62278642,-106.073889
FARMACIAS IGUALES,28.62278642,-106.073889
FARMACIAS BENAVIDES SUCURSAL SAN BUENAVENTURA COA,28.64832276,-106.0698327
FARMACIAS GUADALAJARA,28.64832276,-106.0698327
FARMACIAS TU SALUD,28.61063075,-106.0680303
FARMACIA TRINIDAD,28.61063075,-106.0680303
FARMACIAS IGUALES,23.28822389,-106.0656799
MINI SUPER FARMICIA,28.63373615,-106.0656028
FARMACIA D ALEX,28.63373615,-106.0656028
FARMACIA D ALEX,23.28669317,-106.0642053
BENAVIDES MERCO,28.65175383,-106.0623774
FARMACIAS BENAVIDES SUCURSAL MERCO FRONTERA COA,28.65175383,-106.0623774
FARMACIA FAMILIAR,28.61502425,-106.0621817
FARMACIA FAMILIAR,28.61502425,-106.0621817
FARMACIA SIMILAR SR,23.28802514,-106.0618997
FARMACIA SIMILAR SR,28.64503334,-106.0609962
BOTICA GUADALUPE DE PARRAL,28.64503334,-106.0609962
BOTICA GUADALUPE DE PARRAL,28.62087481,-106.0535388
FARMACIAS GUADALAJARA,28.62087481,-106.0535388
FARMACIAS GUADALAJARA,28.57949749,-106.034197
FARMACIA BENAVIDES SUC DR. DAVILA,28.57949749,-106.034197
BOTICA GUADALUPE DE PARRAL,28.60917649,-106.0330744
BOTICA GUADALUPE DE PARRAL,28.60917649,-106.0330744
BOTICA GUADALUPE DE PARRAL,28.65062438,-106.0315387
BOTICA GUADALUPE DE PARRAL,28.65062438,-106.0315387
FARMACIAS GUADALAJARA,2.85993714,-106.0314639
FARMACIAS GUADALAJARA,2.85993714,-106.0314639
FARMACIA DEL BOSQUE,28.61661076,-106.0262875
FARMACIA DEL BOSQUE,28.61661076,-106.0262875
FARMACIAS GUADALAJARA,28.60305565,-106.0255562
FARMACIAS GUADALAJARA,28.60305565,-106.0255562
FARMACIAS GUADALAJARA,2.86762161,-105.9829305
FARMACIA SIN NOMBRE,2.86762161,-105.9829305
FARMACIAS BENAVIDES SUCURSAL BOULEVARD  BENITO JUAREZ COA,22.89220228,-105.9735177
FARMACIA LA LUZ,28.70412644,-105.9691436
FARMACIAS GUADALAJARA,28.70412644,-105.9691436
FARMACIAS GUADALAJARA,24.10380879,-105.9307215
FARMACIAS BENAVIDES SUCURSAL HAROLD PAPE COA,22.99246124,-105.8598346
FARMACIAS BENAVIDES SUCURSAL PUEBLO COA,22.99081869,-105.8589184
FARMACIA MARIA GUADALUPE,22.98767783,-105.8551123
FARMACIA VALDEZ,22.83011495,-105.7819542
FARMACIAS GUADALAJARA,22.83697572,-105.7799186
FARMACIAS GUADALAJARA,22.83491142,-105.7750786
FARMACIA SAN MARTIN,22.54182699,-105.7393933
FARMACIA SANTA MARIA ANAHUAC,22.53909283,-105.7390352
FARMACIAS BENAVIDES SUCURSAL PRINCIPAL DE MONCLOVA COA,22.54024772,-105.7389242
FARMACIA SANTA MARIA,2.25403396,-105.7373114
FARMACIAS GUADALAJARA,26.92821249,-105.7165618
FARMACIAS SIMILARES,26.92821249,-105.7165618
FARMACIAS BENAVIDES SUCURSAL PAPE COA,26.93752896,-105.7130679
FARMACIAS GUADALAJARA,26.93752896,-105.7130679
FARMACIA GUADALAJARA,26.93523973,-105.7046833
FARMACIAS BENAVIDES SUCURSAL MONCLOVA COA,26.93523973,-105.7046833
FARMACIAS BENAVIDES SUCURSAL MUSEO PAPE COA,26.94258548,-105.6849261
FARMACIAS BENAVIDES SUCURSAL BRUNO NEIRA COA,26.94258548,-105.6849261
FARMACIA NORI,2.69316465,-105.6803252
FARMACIA FAMILIAR,2.69316465,-105.6803252
FARMACIA MLI,26.92749566,-105.675701
FARMACIAS BENAVIDES SUCURSAL LOS GENERALES,26.92749566,-105.675701
FARMACIA BENAVIDES SUCURSAL GUERRERO,26.92955751,-105.6735517
FARMACIAS GUADALAJARA,26.92955751,-105.6735517
FARMATEC,26.93233802,-105.6677424
FARMACIAS BENAVIDES SUCURSAL HUATABAMPO,26.93233802,-105.6677424
FARMA AHORRO LAS GARZAS,26.92989103,-105.6662739
FARMA AHORRO LAS GARZAS,26.92989103,-105.6662739
FARMACIAS IGUALES CASTAÑOS,26.92837604,-105.6510921
FARMACIA NUEVA,26.92837604,-105.6510921
FARMACIA GUERRERO,20.77167811,-105.519414
FARMACIA LESS,28.26915687,-105.4802193
FARMACIAS BENAVIDES SUC SABINAS NLN,28.26915687,-105.4802193
FARMACIAS GUADALAJARA,28.19640958,-105.4779776
FARMACIAS BENAVIDES SUC SABINAS CUAHUTEMOC NLN,28.19640958,-105.4779776
FARMACIAS BENAVIDES SUC NINOS HEROES NLN,28.19340177,-105.4738791
FARMACIA TU BIENESTAR,28.19340177,-105.4738791
FARMACIA VILLARREAL,28.19767941,-105.4736767
FARMACIA LA LUZ,28.19767941,-105.4736767
FARMACIA ZARAGOZA,28.16739005,-105.4736298
FARMACIA GI SESMAEL,28.16739005,-105.4736298
FARMACIA ANGELICA,28.20216659,-105.4732514
FARMACIAS BENAVIDES SUCURSAL RIBERENA,28.20216659,-105.4732514
FARMACIAS GUADALAJARA,28.20209403,-105.4732033
FARMACIAS BENAVIDES SUC MIGUEL ALEMAN,28.20209403,-105.4732033
FARMACIA EXPRESS,28.19676912,-105.471461
FARMACIA BRISA,28.19676912,-105.471461
FARMACIAS GUADALAJARA,28.19233672,-105.4707434
FARMACIA BIO S,28.19233672,-105.4707434
FARMACIA PLAZA,28.19134674,-105.4700188
FARMACIAS BENAVIDES SUC CAMARGO TAM,28.19134674,-105.4700188
FARMACIA SAN ANGEL,28.19137941,-105.4700042
FARMACIA CRISTO REY,28.19137941,-105.4700042
SUPER FARMACIA DIANA,2.81578325,-105.4654703
FARMACIA AZTECA,2.81578325,-105.4654703
FARMACIAS GUADALAJARA,28.18802196,-105.4608675
FARMACIAS BENAVIDES SUC DIAZ ORDAZ TAM,28.18802196,-105.4608675
FARMACIA LORENA,22.39675246,-105.457606
FARMACIA SAN JOSE,20.00791622,-105.4554748
FARMACIA SANTA TERESITA,22.39807467,-105.4542624
FARMACIA LOPEZ,28.18139854,-105.4517202
HM FARMANCIA,28.18139854,-105.4517202
FARMACIAS GUADALAJARA,28.18143035,-105.4516188
FARMACIA REGIS SUC AQUILES SERDAN,28.18143035,-105.4516188
FARMACIA LOPEZ,28.20502034,-105.4435443
FARMACIA LOPEZ,28.20502034,-105.4435443
FARMACIA LOPEZ CRUZ ROSA,28.42694411,-105.433576
FARMA SI,28.42694411,-105.433576
FARMACIA LOPEZ,22.38421044,-105.4241535
FARMACIA LOPEZ,25.04560334,-105.420329
FARMACIA BENAVIDES SUC INTERNACIONAL TAM,2.50479429,-105.419968
FARMACIA LOPEZ,25.04306944,-105.4195186
FARMACIA REYNOSA,22.38535513,-105.4193105
FARMACIA LOPEZ,20.90073257,-105.4107177
FARMACIA REGIS SUC PUENTE INTERNACIONAL,20.90085908,-105.410638
FARMACIAS BENAVIDES SUCURAL PLAZA REYNOSA TAM,26.40333359,-105.3886656
FARMACIA LOPEZ,21.99328069,-105.3885999
FARMACIAS GUADALAJARA,21.69259832,-105.3878901
FARMACIAS BENAVIDES SU CERRALVO NLN,26.39766768,-105.3865187
FARMACIA REGIS SUC DIST. MEDICO,20.75130301,-105.38491
FARMACIAS BENAVIDES SUCURSAL PRADO SUR TAM,2.07491107,-105.3825959
FARMACIA LOPEZ,2.07561307,-105.3767411
FARMACIA LOPEZ CRUZ ROSA,25.95635797,-105.36675
FARMACIA REGIS SUC DEL PRADO,25.94637194,-105.3638817
FARMACIA LOPEZ,25.94949935,-105.3638268
FARMACIA LOPEZ,2.24930518,-105.36172
FARMACIA LOPEZ,22.49042148,-105.3607793
FARMACIAS GUADALAJARA,22.48991878,-105.3607376
FARMACIAS BENAVIDES SUC RODRIGUEZ TAM,23.77963157,-105.3606294
FARMACIA LOPEZ,22.49392425,-105.3605073
FARMACIA LOPEZ,20.75771382,-105.3411688
FARMACIA LOPEZ,20.75470494,-105.3380252
FARMACIAS GUADALAJARA,20.75247492,-105.3346002
ESTACIONAMIENTO,20.75269854,-105.3296242
FARMACIA REGIS SUC MATRIZ,20.74831299,-105.3286795
FARMACIAS REGIS DE REYNOSA OFICINAS ADMINISTRATIVAS,20.74833478,-105.3286603
FARMACIA LOPEZ,22.63683203,-105.3190292
SUPER FARMACIAS DE REYNOSA,20.31562658,-105.3189915
FARMACIA CRUZ ROSA,21.94441365,-105.3005418
FARMACIA LOPEZ,21.94403411,-105.2995053
FARMACIA LOPEZ,21.94120312,-105.2972382
FARMACIAS GUADALAJARA,2.80278205,-105.2926681
FARMACIAS BENAVIDES SUC PRAXEDIS TAM,2.80278205,-105.2926681
FARMACIAS GUADALAJARA,20.68754346,-105.288519
FARMACIAS BENAVIDES SUCURSAL HERON RAMIREZ TAM,20.73183158,-105.2819945
FARMACIA REGIS SUC MORELOS,20.72661986,-105.2817942
FARMACIAS GUADALAJARA,21.86205061,-105.2814459
FARMACIA LOPEZ,20.70048902,-105.275606
FARMACIA LOPEZ,20.71156003,-105.2754834
FARMACIAS GUADALAJARA,20.71565181,-105.2744738
FARMACIAS GUADALAJARA,0.21772035,-105.2726048
FARMACIA SAN JUAN,21.02232221,-105.2704928
FARMACIA CRISTO REY,20.74598693,-105.2550936
FARMACIA REGIS SUC CENTRO DE SALUD,20.66750178,-105.2492122
INTERFARM,21.04035904,-105.2489182
FARMACIAS BENAVIDES SUC FERIA P14 TAM,21.03987039,-105.2484387
FARMACIA LOPEZ,20.66817122,-105.2480172
FARMACIAS BENAVIDES SUCURSAL JARDINES COLONIALES TAM,2.10393751,-105.2479456
FARMACIAS BENAVIDES SUC FUENTE DE DIANA P14 TAM,21.03870184,-105.2472781
FARMACIAS GUADALAJARA,20.60016343,-105.2379876
FARMACIA DE SALUD SUCURSAL 2,20.60081482,-105.2378579
FARMACIAS BENAVIDES SUC VERACRUZ TAM,20.60831764,-105.236125
FARMACIA BENAVIDES SUC VISTA HERMOSA TAM,20.60669029,-105.235685
FARMACIA REGIS SUC PETROLERA,20.60854892,-105.2351747
FARMACIA LOPEZ,20.60651314,-105.2351723
FARMACIA SAN RAFEL,21.74109971,-105.2336141
FARMACIA LOPEZ,20.60388614,-105.2335474
FARMACIAS GUADALAJARA,2.06395953,-105.2333948
FARMACIA PEÑA PEÑA,20.61261488,-105.2324159
FARMACIAS GUADALAJARA,2.06367571,-105.232111
FARMACIAS GUADALAJARA,2.06389755,-105.231967
FARMACIA LA SALUD DE REYNOSA,20.63653782,-105.2314709
FARMACIAS GUADALAJARA,20.65511592,-105.2311299
FARMACIAS GUADALAJARA,20.68841335,-105.2307051
FARMACIAS GUADALAJARA,20.62620195,-105.2297726
FARMACIA LOPEZ,20.63284929,-105.2296814
FARMACIAS GUADALAJARA,20.62267807,-105.2293113
SHADDAI FHARMACY SHOPPING CENTER,20.76216257,-105.2288652
FARMACIA JESSICA,20.76234335,-105.2287692
FARMACIA TREVIÑO,20.76317114,-105.2286608
FARMACIA DEL ANGEL,20.65863495,-105.2283387
FARMACIAS GUADALAJARA,20.64133215,-105.2280636
FARMACIAS BENAVIDES SUC LAS FLORES TAM,20.76248218,-105.2261345
FARMACIAS BENAVIDES SUC LONGORIA TAM,20.62093648,-105.2240288
FARMACIA REGIS SUC HOSPITAL,2.06325968,-105.2224724
FARMACIA SAN JAVIER,20.64118521,-105.2210677
FARMACIAS BENAVIDES SUC DEL RIO PLAZA TAM,20.64346357,-105.2208182
FARMACIAS GUADALAJARA,20.65260668,-105.2184463
FARMACIA LOPEZ,20.71434185,-105.2180409
FARMACIAS BENAVIDES SUC LAS FUENTES TAM,20.65123944,-105.216332
FARMACIA OCAMPO ADJUNTO FERRETERIA Y ABARROTES,20.66830237,-105.2151081
FARMACIAS BENAVIDES SUC PERIFERICO TAM,20.64321581,-105.2149316
2020 FARMA LA FARMACIA DE LA VILLA,20.65718586,-105.2145206
FARMACIA LOPEZ CRUZ ROSA,22.11963935,-105.2116928
FARMACIA LOPEZ,21.80875825,-105.2116048
FARMACIA REY,21.80872712,-105.2110162
FARMACIAS BENAVIDES SUC LAS LOMAS TAM,20.66948714,-105.2106548
FARMACIA GUADALAJARA,21.81258597,-105.210616
FARMACIAS GUADALAJARA,20.71574179,-105.2096888
FARMACIAS GUADALAJARA,21.80831776,-105.2094196
FARMACIAS BENAVIDES SUCURSAL TECNOLOGICO TAM,20.65133492,-105.209171
FARMACIAS GUADALAJARA,20.65611336,-105.2087661
FARMACIA SAO PAULO,21.81268766,-105.2086347
FARMACIAS GUADALAJARA,21.80857082,-105.2072699
FARMACIAS BENAVIDES SUCURSAL HACIENDA DE BUGAMBILIA TAM,21.80816825,-105.2059927
FARMACIA LA PAZ,21.80779184,-105.2059503
FARMACIA DE GALO,20.67253133,-105.2029783
FARMACIAS GUADALAJARA,21.48427055,-105.197243
FARMACIAS GUADALAJARA,20.81568979,-105.1944363
FARMACIA DE CRISTO,20.80885295,-105.192363
FARMACIA LOPEZ,20.81335098,-105.1900794
FARMACIA Y CONSULTORIO   SAN VALENTIN,27.65915427,-105.179579
FARMACIA BENAVIDES SUCURSAL HEROES DE LA REFORMA TAM,27.65915427,-105.179579
FARMACIAS GUADALAJARA,27.69099594,-105.1733944
FARMACIA LOPEZ,27.69099594,-105.1733944
FARMACIA PAGUE MENOS,27.68447906,-105.1707194
FARMACIA LOPEZ CRUZ ROSA,27.68447906,-105.1707194
FARMACIA GUADALUPE,21.24654553,-105.1663961
FARMACIA REGIS SUC JUAREZ,21.25010683,-105.1658492
FARMACIAS BENAVIDES SUC ANIVERSARIO TAM,27.67925698,-105.1648346
FARMACIAS BENAVIDES SUCURSAL IMAQ M798 TAM,27.67925698,-105.1648346
FARMACIA ESPERANZA,21.24970856,-105.1648031
FARMACIAS GUADALAJARA,27.68260135,-105.1635466
FARMACIAS GUADALAJARA,27.68260135,-105.1635466
FARMACIA LOPEZ,2.19508351,-105.1444969
FARMACIA VICENTE,2.19509582,-105.1440592
FARMACIA IBACOR,21.95059113,-105.1432901
FARMACIA NUEVO MEXICO,21.17949034,-105.1361946
FARMACIAS GUADALAJARA,21.17964916,-105.1350863
FARMACIA LOPEZ CRUZ ROSA,19.58931854,-105.1252944
FARMACIAS BENAVIDES SUCURSAL BALCONES DE ALCALA TAM,21.53679455,-105.1219712
FARMACIAS GUADALAJARA,21.53598068,-105.1204083
FARMACIAS GUADALAJARA,20.82499406,-105.1044857
FARMACIA LOPEZ,21.83471072,-105.0649657
FARMACIAS GUADALAJARA,2.15156888,-104.944588
FARMACIA LOPEZ,21.52061026,-104.9264635
FARMACIA LOPEZ,21.23242489,-104.9250463
FARMACIAS GUADALAJARA,21.51353642,-104.9223962
FARMACIA BENAVIDES SUC RIO BRAVO PTE TAM,21.52531519,-104.9220714
FARMACIA LOPEZ,27.12948171,-104.9219924
FARMACIAS GUADALAJARA,27.12948171,-104.9219924
FARMACIAS GUADALAJARA,2.15201256,-104.9198808
FARMACIA REGIS DE REYNOSA SUC RIO BRAVO,27.12790501,-104.9195008
FARMACIAS BENAVIDES SUC SECUNDARIA TAM,27.12790501,-104.9195008
FARMACIA BENAVIDES SUCURSAL REY TAM,21.52372761,-104.918332
FARMACIAS BENAVIDES SUCURSAL RIO BRAVO ORIENTE TAM,26.24954176,-104.9151288
FARMACIA LOPEZ,21.51783352,-104.91482
FARMACIAS GUADALAJARA,21.50683548,-104.9071722
FARMACIA LOPEZ,27.12227945,-104.9061264
FARMACIAS BENAVIDES SUC  SAN JUAN TAM,27.12227945,-104.9061264
FARMACIA SUSY,21.50832858,-104.9061163
FARMACIAS BENAVIDES SUC HIDALGO NLN,21.50211629,-104.9057331
FARMACIA BENAVIDES SUCURSAL SABINAS,21.44725247,-104.9056416
FARMACIA DEL PUEBLO,2.14855178,-104.9053528
FARMACIAS BENAVIDES SUC SALINAS VICTORIA NLN,21.50947819,-104.9049926
FARMACIAS GUADALAJARA,21.45720217,-104.9048857
FARMACIA SAGRADO CORAZON,2.15239198,-104.9043755
FARMACIAS BENAVIDES SUC CIENEGA DE FLORES NLN,21.51349706,-104.9038326
FARMACIAS GUADALAJARA,21.52657184,-104.9032785
FARMACIA CARRETE,2.15087587,-104.9018683
FARMACIA DE LA CRUZ,21.23874295,-104.9017483
FARMACIA JUAREZ,21.50603078,-104.9015308
FARMACIAS REGIAS,21.24055756,-104.9009123
FARMACIA ISABEL,21.23965143,-104.9008687
FARMACIA LABERINTO,21.23743817,-104.9007866
FARMACIAS BENAVIDES SUC PLAZA 2CERO7 NLN,21.52099185,-104.9005872
FARMACIAS GUADALAJARA,21.44544388,-104.9004623
FARMACIAS GUADALAJARA,21.23633867,-104.9004199
FARMACIAS GUADALAJARA,21.44577136,-104.8997646
FARMACIAS BENAVIDES SUCURSAL ZUAZUA NLN,21.52337579,-104.8996975
GARCIAS PHARMACY Y LIQUORS,21.44872482,-104.8994265
FARMACIAS BENAVIDES SUC MATAMOROS 7 TAM,21.51301268,-104.8990213
FARMACIAS GUADALAJARA,21.50198475,-104.898863
FARMACIA LAS PALMAS,21.50198825,-104.8988227
FARMACIAS BENAVIDES SUC PUERTA MEXICO TAM,2.15152744,-104.8987486
FARMACIAS BENAVIDES SUC CONSULADO MATAMOROS TAM,21.51412295,-104.898505
FARMACIA SINAI,19.35364745,-104.8967662
FARMACIAS GUADALAJARA,21.45555288,-104.8962028
FARMACIA REGIS,21.50265639,-104.8958146
FARMACIA SAN JOSE,21.49371334,-104.8957486
FARMACIA MUNDO RENAL,21.51137446,-104.8955458
FARMACIA GUADALAJARA,2.14022184,-104.8948151
FARMACIAS GUADALAJARA,21.48523871,-104.8937016
FARMACIA R R,21.50890552,-104.8934879
FARMACIA PLAZA,2.15097688,-104.8933727
FARMACIAS GUADALAJARA,21.45967602,-104.89329
DROGUERIA Y FARMACIA SAN JUDITAS SUCURSAL CENTRO MEDICO MATAMOROS,21.46034274,-104.8928209
FARMACIAS BENAVIDES SUC MATAMOROS 6 TAM,21.51601476,-104.8926011
FARMACIA ESPECIALIZADA ESTRELLA,21.44807599,-104.8925685
FARMACIAS BENAVIDES SUC AVENIDA SEXTA TAM,21.50683941,-104.8924907
FARMACIAS GUADALAJARA,21.51094422,-104.8921047
FARMACIA BENAVIDES SUC OCAMPO TAM,21.51400769,-104.8920949
FARMACIAS GUADALAJARA,21.51093399,-104.8920293
FARMACIAS GUADALAJARA,21.47961661,-104.8918947
FARMACIA VIDA,21.48451853,-104.8918139
FARMACIAS GUADALAJARA,21.51123777,-104.8912539
FARMACIAS BENAVIDES SUC CATORCE TAM,21.51402469,-104.8912135
FARMACIA MADERO,21.51085443,-104.8910276
FARMACIAS BENAVIDES SUC LAURO VILLAR TAM,21.51426246,-104.8908411
FARMACIA EBENEZER,21.51423927,-104.8906421
FARMACIAS GUADALAJARA,21.50971962,-104.888992
FARMACIA PATY,21.50514997,-104.8887309
FARMACIA GUADALAJARA,21.47930793,-104.8881753
FARMACIAS GUADALAJARA,21.45900849,-104.8873516
FARMACIAS GUADALAJARA,21.47991077,-104.8859459
FARMACIAS DEL PUEBLO,21.49124422,-104.8833269
FARMACIAS GUADALAJARA,21.48383635,-104.8804086
FARMACIAS BENAVIDES SUC EL CARMEN NLN,21.47680527,-104.8799614
FARMACIA GUADALAJARA,2.14947208,-104.8795931
FARMACIA BENAVIDES SUC ROBERTO GUERRA,21.53074967,-104.8773663
FARMACIA BENAVIDES SUC CAVAZOS LERMAS TAM,21.51955974,-104.8772178
FARMACIAS GUADALAJARA,21.48563967,-104.8771
FARMACIAS GUADALAJARA,21.49665442,-104.877041
FARMACIA GUADALAJARA,21.50418701,-104.8766426
FARMACIAS GUADALAJARA,21.48407626,-104.8766237
FARMACIAS BENAVIDES SUC PLAZA FIESTA TAM,2.14731145,-104.874883
FARMACIAS GUADALAJARA,21.47138267,-104.874647
FARMACIA SAN JUDAS TADEO,21.50900116,-104.8727236
FARMACIA GUADALAJARA,21.48790609,-104.8725308
FARMACIAS GUADALAJARA,21.47720225,-104.8684238
FARMACIAS GUADALAJARA,21.46391284,-104.8620437
FARMACIAS GUADALAJARA,2.14772637,-104.8616969
FARMACIAS GUADALAJARA,21.47438418,-104.8592581
FARMACIAS GUADALAJARA,21.42962696,-104.8589122
FARMACIA DOCTORES TORRES,21.47293551,-104.8561453
FARMACIA JESUS,21.47261219,-104.8542019
FARMACIAS GUADALAJARA,20.76165107,-104.8527
FARMACIA FARMATON,21.48303536,-104.8522951
FARMACIA MANTE,21.47802521,-104.8452191
FARMACIAS BENAVIDES SUC PEDRO CARDENAS TAM,2.14818753,-104.8449203
FARMACIAS GUADALAJARA,21.48733849,-104.8371315
FARMACIAS GUADALAJARA,21.58515158,-104.8353067
FARMACIAS GUADALAJARA,21.49133169,-104.8269207
FARMACIA GENERICOS,21.49135459,-104.8268983
FARMACIAS DEL PUEBLO,21.49183182,-104.8252328
FARMACIA GUADALAJARA,21.58318671,-104.8231325
FARMACIAS GUADALAJARA,21.58318779,-104.8231317
FARMACIA GUADALAJARA,20.38108273,-104.822854
FARMACIAS BENAVIDES SUC MOISES SENZ NLN,21.49323701,-104.822179
FARMACIAS GUADALAJARA,21.50123182,-104.8217049
FARMACIAS BENAVIDES SUC ANTONIO ROSALES SIN,20.38116087,-104.8215026
FARMAREAL,21.49359705,-104.8214054
FARMACIAS BENAVIDES SUC SANTA ELENA NLN,20.37859576,-104.8201903
FARMACIAS GUADALAJARA,21.44902775,-104.8145798
FARMACIAS BENAVIDES SUC HEROES DE LINCOLN NLN,21.44977419,-104.8132456
FARMACIAS GUADALAJARA,21.46729033,-104.799584
FARMACIAS GUADALAJARA,20.52817413,-104.7937809
FARMACIAS BENAVIDES SUC SANTA ROSA - APODACA NLN,20.52390814,-104.7883834
FARMACIAS GUADALAJARA,24.00938069,-104.7058635
FARMACIA BENAVIDES SUC VILLA DE GARCIA NLN,19.22526254,-104.7054673
FARMACIAS BENAVIDES SUC MINAS NLN,19.22702593,-104.705324
FARMACIA GUADALAJARA,24.00006738,-104.7001083
FARMACIA RENACIMIENTO,23.96294389,-104.6962747
FARMACIAS GUADALAJARA,24.00883975,-104.6934923
FARMACIAS GUADALAJARA,24.00956111,-104.6930405
FARMACIA BENAVIDES SUC PLAZA ONCE 21,24.01085304,-104.6919591
FARMACIAS BENAVIDES SUC DEL HOSPITAL NLN,24.00391564,-104.6898067
FARMACIAS BENAVIDES SUC CANTERAS NLN,24.05046246,-104.6876756
FARMACIAS GUADALAJARA,23.99362906,-104.6862362
FARMACIA PREFERIDA,24.03517268,-104.6835369
FARMACIAS DEL PUEBLO,19.20236637,-104.6832102
FARMACIAS GUADALAJARA,24.02446283,-104.6801006
FARMACIAS GUADALAJARA,24.03641142,-104.678165
FARMACIAS GUADALAJARA,24.02743566,-104.6760679
VIDALI NUTRICION MEDICA ESPECIALIZADA,24.00781229,-104.6757822
FARMACIAS BENAVIDES SUC INDEPENDENCIA SIN,24.03867711,-104.6722736
FARMACIAS BENAVIDES SUC MADERO SIN,24.02745361,-104.6709187
FARMACIA ENCIANAS,24.02863217,-104.6708883
FARMACIAS BENAVIDES SUC ESCOBEDO NLN,24.02393822,-104.6696698
FARMACIAS GUADALAJARA,24.02377867,-104.6675244
FARMACIAS GUADALAJARA,24.02177445,-104.6671579
FARMACIAS BENAVIDES SUC PLAZA LEYVA SIN,24.02237814,-104.6668606
FARMACIAS GUADALAJARA,24.02514963,-104.6667309
FARMACIAS BENAVIDES SUC PASEO DEL NOGAL NLN,24.03010705,-104.6642556
FARMACIAS GUADALAJARA,24.02574348,-104.6638312
FARMACIA VERACRUZ,24.02426805,-104.6637803
FARMACIAS BENAVIDES SUC VALLE DE LINCOLN NLN,24.01351271,-104.6632528
FARMACIAS BENAVIDES SUC E SEXTA NLN,24.02453211,-104.6628097
FARMACIAS GUADALAJARA,24.02454415,-104.6627357
FARMACIA BENAVIDES SUC CITADINA NLN,24.02454886,-104.6627067
FARMACIAS GUADALAJARA,23.99580967,-104.66249
FARMACIAS GUADALAJARA,23.99888516,-104.6619784
FARMACIAS GUADALAJARA,24.02640639,-104.6593505
FARMACIA PRINCIPAL,0.24042759,-104.6574809
FARMACIA MILENIUM,24.02550207,-104.656909
FARMACIAS BENAVIDES SUC VALLE DE LOS NOGALES NLN,24.02883734,-104.6556273
FARMACIAS BENAVIDES SUC PRADERAS NLN,24.00877306,-104.6549196
FARMACIAS BENAVIDES SUC LOS ENCINOS NLN,24.03465411,-104.653119
FARMACIAS GUADALAJARA,2.40277497,-104.652806
FARMACIAS GUADALAJARA,24.01596179,-104.651709
FARMACIAS GUADALAJARA,24.00281816,-104.6506934
FARMACIA LA NUEVA,24.01994064,-104.6478586
FARMACIA DE GENERICOS SIN NOMBRE,24.01994065,-104.6478538
FARMACIAS BENAVIDES SUC MI PLAZA ESCOBEDO NLN,24.02704622,-104.6468383
FARMACIAS BENAVIDES SUC NACIONAL SIN,24.02909226,-104.6454122
FARMACIAS BENAVIDES SUCURSAL OMA,24.01453545,-104.6448361
FARMACIAS BENAVIDES SUC LOS PARQUES NLN,24.03172619,-104.6419773
FARMACIAS GUADALAJARA,19.48295744,-104.641351
FARMACIA CRISTINO,24.03349319,-104.6397739
FARMACIA BENAVIDES,24.00899831,-104.6390905
FARMACIAS GUADALAJARA,19.48304877,-104.6390279
FARMACIA BETEL,0.24007509,-104.6309379
FARMACIAS GUADALAJARA,24.04088481,-104.6300049
FARMACIAS GUADALAJARA,24.01094491,-104.6295557
FARMACIAS BENAVIDES SUC ZARAGOZA SIN,24.02724269,-104.6293229
FARMACIA GUADALAJARA,24.00985069,-104.627997
FARMACIA GUADALAJARA,24.01769219,-104.6218555
FARMACIAS GUADALAJARA,24.05654348,-104.6213939
FARMACIAS GUADALAJARA,2.40313028,-104.6201983
FARMACIAS GUADALAJARA,24.04481381,-104.6196214
FARMACIA GUADALAJARA,24.01800689,-104.6171027
FARMACIAS GUADALAJARA,24.04723245,-104.6152514
FARMACIAS GUADALAJARA,1.97184692,-104.6099173
FARMACIAS BENAVIDES SUC MERCO VALLE DE SANTA ELENA NLN,24.05455766,-104.6078285
FARMACIA LA FRANJA NARANJA,24.06303309,-104.6040892
FARMACIAS BENAVIDES SUC ORDOÑEZ ESCOBEDO NLN,24.07445647,-104.5879978
FARMACIAS GUADALAJARA,19.23674901,-104.5631562
FARMACIAS BENAVIDES SUC HACIENDA DEL SOL NLN,1.92378277,-104.5577227
FARMACIAS GUADALAJARA,19.23787525,-104.5573188
FARMACIAS BENAVIDES SUC LOS PINOS-ESCOBEDO NLN,2.51794654,-104.5570074
FARMACIA LUCY,2.22562187,-104.5171102
FARMACIAS GUADALAJARA,20.41635304,-104.493924
FARMACIA SAN JUDAS TADEO,20.41488124,-104.4933622
FARMACIA PADILLA,19.54979906,-104.4843974
FARMACIAS BENAVIDES SUC LAS PALMAS NLN,21.05057433,-104.4839959
FARMACIAS BENAVIDES SUC MISION ANAHUAC NLN,19.60351912,-104.4357477
FARMACIAS GUADALAJARA,21.03682564,-104.378386
FARMACIAS BENAVIDES SUC OMA MTY TC NLN,2.10357047,-104.3723072
FARMACIAS IGUALES,21.03554063,-104.3714193
FARMACIAS BENAVIDES SUCURSAL SOLIDARIDAD NLN,21.03550649,-104.3712389
FARMACIAS GUADALAJARA,19.77162063,-104.3683385
FARMACIAS GUADALAJARA,1.97771398,-104.3671285
FARMACIA BENAVIDES SUC OMA TA,19.77183577,-104.3670263
FARMACIAS BENAVIDES SUC VALLE DEL CANADA NLN,19.77125629,-104.3668813
JC NUTRITION,19.45246242,-104.3608165
FARMACIA REAL,19.45186751,-104.3582879
FARMACIAS BENAVIDES SUC ZARAGOZA NLN,19.45259216,-104.3579746
FARMACIAS MEDICINA MONTERREY,1.97749033,-104.3575164
KLYNS MADERO,19.76863126,-104.3552665
FARMACIAS IGUALES MADERO CONSTITUCION,19.11824487,-104.3532924
FARMACIAS IGUALES,19.12141661,-104.353174
FARMACIA BENAVIDES SUC OMA T-B NLN,19.12028288,-104.3505179
FARMACIA MARIA GUADALUPE,20.13751634,-104.3471008
FARMACIA MADERO,20.13065821,-104.3462982
FRMACIA GASPAR,19.10737601,-104.3356509
FARMACIAS GUADALAJARA,19.12522757,-104.3333783
FARMACIAS GUADALAJARA,19.10500319,-104.333348
FARMACIAS BENAVIDES SUC LOS PINOS - APODACA NLN,19.11591931,-104.3282392
FARMACIA LA TERMINAL,1.91049324,-104.3189183
FARMACIAS GUADALAJARA,19.05105136,-104.3179385
FARMACIAS GUADALAJARA,1.90516161,-104.3177761
FARMACIAS BENAVIDES SUC. MIRASOL NLN,19.05352309,-104.3141274
FARMACIA GUADALAJARA,19.10741987,-104.3134073
FARMACIAS BENAVIDES SUC JARDINES LAS LOMAS NLN,19.05306016,-104.3109738
FARMACIA MEZA,19.05326016,-104.310741
FARMACIA BENAVIDES SUC CALIFORNIA NLN,19.05390462,-104.3044472
FARMACIAS DEL PUEBLO,19.09229705,-104.3005529
FARMACIAS BENAVIDES SUCURSAL ASTROS NLN,19.09202959,-104.3003397
FARMACIA GUADALAJARA,25.41722131,-104.2752276
FARMACIAS BENAVIDES SUC REAL DE LINCOLN NLN,19.95622792,-104.2686778
FARMACIAS GUADALAJARA,19.95749915,-104.2677027
FARMACIAS GUADALAJARA,19.96013854,-104.2645757
FARMACIAS BENAVIDES SUC 0789 FRANCISCO I. MADERO COA,23.84820639,-104.2455781
FARMACIA 24 HORAS,23.84772142,-104.2452037
FARMACIAS GUADALAJARA,20.27459359,-104.2377166
FARMACIAS BENAVIDES SUC PLAZA SENDERO NLN,19.80456687,-104.2167994
FARMACIAS GUADALAJARA,20.21955371,-104.1656256
FARMACIA BENAVIDES SUC ACUEDUCTO LA AURORA NLN,20.21729695,-104.1633411
FARMACIAS ABC DEL NORTE,20.21767761,-104.1629937
FARMACIAS IGUALES MADERO COLOSIO,20.21670506,-104.1629073
FARMACIAS GUADALAJARA,19.82104916,-104.1512307
FARMACIAS GUADALAJARA,24.44975692,-104.1220317
FARMACIAS SIMILARES,20.76380018,-104.081196
FARMACIAS GUADALAJARA,20.76738657,-104.0803643
SUPER FARMACIA EL MIRADOR,18.91951984,-104.0691597
FARMACIAS DEL PUEBLO,20.55060183,-104.0525061
FARMACIAS GUADALAJARA,20.20231726,-104.0503167
FARMACIAS GUADALAJARA,2.02029942,-104.0501456
CORPORATIVO PUREX,19.38588733,-104.0501005
FARMACIAS GUADALAJARA,20.20267864,-104.0498287
FARMACIAS BENAVIDES SUC REPUBLICA MEXICANA NLN,20.20155723,-104.0489285
FARMACIAS GUADALAJARA,20.20171719,-104.0487155
FARMACIAS BENAVIDES SUC BONAVENTE NLN,23.97270611,-104.0483261
FARMACIAS GUADALAJARA,20.54924187,-104.0473356
FARMACIAS GUADALAJARA,20.54923583,-104.0473022
FARMACIAS GUADALAJARA,20.54884483,-104.0468437
FARMACIAS BENAVIDES SUC PUEBLO NUEVO NLN,2.05479304,-104.0463615
FARMACIAS BENAVIDES SUCURSAL RIO PILON,20.54788157,-104.0461847
FARMACIA BENAVIDES SUC RES. SAN NICOLAS NLN,20.53775812,-104.0410562
FARMACIAS BENAVIDES SUC JUAN JOSE RIOS SIN,20.53392579,-104.0399094
KLYNS SAN PEDRO,20.19075931,-104.0381354
FARMACIAS KLYNS,20.53420252,-104.0347994
FARMACIA SIMILAR DOCTOR SIMI,2.05344396,-104.0345469
FARMACIA Y CONSULTORIO DENTAL,20.53448115,-104.034509
FARMACIA Y ABARROTES LA AVENIDA,20.79894508,-104.0016318
FARMACIA JUANITA 24 HORAS,20.70297394,-103.9760918
FARMACIAS GUADALAJARA,19.78212377,-103.9724869
FARMACON CHE RIOS,20.91017861,-103.9696915
FARMACIAS BENAVIDES SUC PLAZA REAL CUMBRES NLN,18.93671981,-103.9648921
FARMACIAS BENAVIDES SUCURSAL MAYRAN COA,18.96003631,-103.9549334
FARMACIA SAN JUDITAS,20.43738421,-103.9308368
FARMACIAS GUADALAJARA,20.43640119,-103.9290876
FARMACIAS IGUALES,20.43546487,-103.9278937
FARMACIA KLYNS,19.60165837,-103.9149683
KLYNS MATER,22.62261324,-103.8978257
FARMACIAS BENAVIDES SUCURSAL ALGODONERA COA,2.26279799,-103.8957724
FARMACIAS SANDRA,1.89293026,-103.8849791
FARMACIAS GUADALAJARA,18.90603273,-103.8849459
FARMACIAS BENAVIDES SUC PORFIRIO DIAZ NLN,18.92398721,-103.8832503
FARMACIAS GUADALAJARA,18.92470647,-103.8818501
FARMACIAS GUADALAJARA,18.92013102,-103.8799332
FARMACIAS BENAVIDES SUC CUMBRES MADEIRA NLN,18.91480483,-103.8795444
FARMACIAS BENAVIDES SUCURSAL SAN BERNABE NLN,18.91201221,-103.8772255
BODEGAS 2,18.91201195,-103.8772255
FARMACIAS GUADALAJARA,18.91398799,-103.8758358
FARMACIAS BIENESTAR,18.91046048,-103.8753948
FRAMACIAS BENAVIDES SUCURSAL SAN NICOLAS NLN,1.89095566,-103.8728749
FARMACIAS BENAVIDES SUC LUCCA NLN,18.91008017,-103.8719613
FARMACIA BENAVIDES SUCURSAL SAN NICOLAS,18.92124211,-103.8717308
FARMACIAS BENAVIDES SUC CAMINO AL MEZQUITAL NLN,18.91117804,-103.8715445
FARMACIAS GUADALAJARA,18.90973127,-103.8707415
FARMACIAS GUADALAJARA,18.91497423,-103.8662138
FARMACIAS GUADALAJARA,25.83282422,-103.8482608
FARMACIAS ABC DEL NORTE,20.68264477,-103.8472168
FARMACIA LA CONSTANCIA,20.87687937,-103.841789
FARMACIAS GUADALAJARA,20.87831898,-103.8398447
FARMACIA GUADALAJARA,2.08844808,-103.8379926
FARMACIAS BENAVIDES SUC NUEVAS LAS PUENTES NLN,20.88606304,-103.8340825
FARMACIAS BENAVIDES SUC VILLA ALEGRE NLN,20.88235183,-103.833999
FARMACIAS BENAVIDES SUCURSAL AZTLAN METRO NLN,20.88221572,-103.8324775
FARMACIA BENAVIDES SUC SAN NICOLAS LARRALDE NLN,20.36502346,-103.8228881
FARMACIAS GUADALAJARA,20.36509829,-103.8227573
FARMACIAS BENAVIDES SUC MANUEL L BARRAGAN NLN,20.36491343,-103.8225873
FARMACIAS GUADALAJARA,19.20134127,-103.8114751
FARMACIA BENAVIDES SUC DIEGO DIAZ NLN,19.19939879,-103.8112533
FARMACIA CASTILLO,0.19202254,-103.8091795
FARMACIAS BENAVIDES SUC PUERTA DE HIERRO NLN,23.25396124,-103.7985769
FARMACIA GUADALAJARA,20.40636127,-103.7723683
FARMACIAS GUADALAJARA,20.40697605,-103.7689699
FARMACIAS BENAVIDES SUC LAS PUENTES NLN,19.94726352,-103.7609221
FARMACIAS GUADALAJARA,0.19323991,-103.7576851
FARMACIAS GUADALAJARA,19.24741495,-103.7574699
FARMACIAS GUADALAJARA,19.32458327,-103.7573206
FARMACIAS BENAVIDES SUCURSAL CERRO DE LAS MITRAS NLN,19.24860035,-103.7570053
FARMACIAS BENAVIDES SUC UNIDAD LABORAL NLN,19.94251777,-103.7564031
FARMACIAS GUADALAJARA,19.25614662,-103.75358
FARMACIAS GUADALAJARA,19.23559188,-103.7518725
FARMACIA SAN ANGEL,1.92620591,-103.7490434
FARMACIAS BENAVIDES SUCURSAL PLAZA QU NLN,19.25101436,-103.7454791
FARMACIA BENAVIDES SUC PASEO  DE LAS PUENTES NLN,1.92576665,-103.7433485
FARMACIA BENAVIDES SUC BARRAGAN II NLN,19.26358116,-103.740565
FARMACIAS GUADALAJARA,19.26410047,-103.7402841
FARMACIA LA PAZ,19.26562605,-103.7394598
FARMACIAS GUADALAJARA,19.27560669,-103.738198
FARMACIAS BENAVIDES SUC ANAHUAC NLN,19.28451173,-103.7363472
FARMACIAS GUADALAJARA,19.22423856,-103.7357708
FARMACIAS BENAVIDES SUC H. CABALLERO NLN,19.24548397,-103.7354652
FARMACIAS BENAVIDES SUC PEDRO INFANTE NLN,19.24594827,-103.7345533
FARMACIAS BENAVIDES SUC UNIDAD MODELO NLN,1.92604588,-103.7289765
FARMACIA DELUX,22.38792189,-103.7280073
FARMACIAS GUADALAJARA,20.83259188,-103.7279566
FARMACIAS GUADALAJARA,19.24206706,-103.7275117
FARMACIAS GUADALAJARA,1.92426854,-103.7270431
FARMACIAS GUADALAJARA,19.28652637,-103.7263715
FARMACIAS GUADALAJARA,1.92416301,-103.7256098
FARMACIAS GUADALAJARA,1.92316309,-103.7254135
FARMACIAS BENAVIDES SUC POTRERODE ANAHUAC NLN,19.24228568,-103.7251585
FARMACIAS ABC DEL NORTE,20.13637133,-103.7248735
FARMACIAS GUADALAJARA,19.24158384,-103.7238807
FARMACIAS BENAVIDES SUC QUINTA MONTECARLO NLN,19.24196642,-103.7236373
FARMACIA DEL PUEBLO,1.92523313,-103.7225741
FARMACIAS BENAVIDES SUC DIAZ DE BERLANGA NLN,19.24001868,-103.721786
FARMACIAS BENAVIDES SUC CASA BLANCA NLN,19.25647653,-103.7170356
FARMACIA BENAVIDES SUC FRANCISCO DE QUEVEDO NLN,19.26868345,-103.7168104
FARMACIAS GUADALAJARA,19.25516842,-103.7153001
FARMACIAS BENAVIDES SUCURSAL PEÑUELAS NLN,19.25458556,-103.714895
FARMACIA HIRVIN,19.26504608,-103.7135588
FARMACIAS GUADALAJARA,19.25349374,-103.7134472
FARMACIA VANESA,19.24415538,-103.7123754
FARMACIA VERONA,19.27222168,-103.7107183
FARMACIAS GUADALAJARA,19.27154305,-103.71039
FARMACIA BENAVIDES SUC AZTLAN NLN,19.23672558,-103.7102792
FARMACIAS GUADALAJARA,20.65298568,-103.7079962
FARMACIAS GUADALAJARA,20.64935337,-103.7073405
FARMACIAS BENAVIDES SUCURSAL SANTA CECILIA NLN,19.25928066,-103.7073322
FARMACIA BENAVIDES SUC CITADEL NLN,19.25987638,-103.706823
FARMACIAS BENAVIDES SUCURSAL CIMA CUMBRES NLN,19.26040656,-103.7061172
FARMACIAS BENAVIDES SUCURSAL FERROCARRILERA NLN,19.23053919,-103.703368
FARMACIAS BENAVIDES SUC LA FE NLN,2.06495239,-103.7030772
FARMACIAS GUADALAJARA,20.65078912,-103.7015178
FARMACIA SANTA MONICA,20.65006857,-103.7009421
FARMACIAS BENAVIDES SUC. SAN MIGUEL NLN,2.06618009,-103.7005066
FARMACIA LUPITA,2.06485317,-103.7001883
FARMACIAS BENAVIDES SUC. RODRIGO GOMEZ NLN,19.25306854,-103.698448
FARMACIAS GUADALAJARA,19.25498127,-103.6947365
FARMACIA LA SALUD,20.77599605,-103.694051
FARMACIAS GUADALAJARA,19.23980735,-103.6910239
FARMACIA DE LA CRUZ,19.25849312,-103.6903302
FARMACIAS GUADALAJARA,19.25857139,-103.6902133
FARMACIAS GUADALAJARA,20.03255137,-103.6860668
FARMACIAS BENAVIDES SUC RESIDENCIAL CUMBRES NLN,20.35246045,-103.6697987
FARMACIAS ISIS,18.70241801,-103.6646486
FARMACIAS ABC DEL NORTE,20.41415433,-103.6636675
FARMACIAS BENAVIDES SUC FELIX GALVAN NLN,20.41367007,-103.6635892
FARMACIAS BENAVIDES SUC. TORRES DE SAN MIGUEL NLN,20.41687382,-103.6634258
FARMACIA BENAVIDES SUC PASEO LA FE NLN,20.43463483,-103.6396885
FARMACIAS GUADALAJARA,23.63247358,-103.6394098
FARMACIAS BENAVIDES SUCURSAL LINCOLN NLN,20.43454233,-103.6372243
FARMACIAS BENAVIDES SUC ALFONSO REYES NLN,19.32858911,-103.6027736
FARMACIAS GUADALAJARA,19.88368983,-103.6003035
FARMACIA BENAVIDES SUC METROPOLITANO NLN,19.88473448,-103.6001744
FARMACIAS GUADALAJARA,20.01200081,-103.5998092
FARMACIAS GUADALAJARA,19.88457953,-103.5994891
FARMACIA BENAVIDES SUC CONSTITUYENTES NLN,19.88373197,-103.5994691
FARMACIAS BENAVIDES SUC PASEO SAN MIGUEL NLN,19.88338897,-103.5974036
FARMACIAS GUADALAJARA,19.38714679,-103.5726399
FARMACIAS BENAVIDES SUC VALLE DE SANTA MARIA NLN,20.22872693,-103.5717269
FARMACIAS BENAVIDES SUC. PRIV.  DE LINDA VISTA NLN,19.38866043,-103.5710317
FARMACIAS BENAVIDES SUCURSAL MI PLAZA LOS ANGELES NLN,20.23015698,-103.5694201
FARMACIAS LA GENEROSA SUCURSAL ABASTOS,22.77156319,-103.5669329
FARMACIAS BENAVIDES SUCURSAL RANGEL FRIAS NLN,2.23021509,-103.5612283
FARMACIAS BENAVIDES SUC DEL PASEO MUGUERZA NLN,20.72876847,-103.5411434
FARMACIAS GUADALAJARA,25.54399078,-103.5265192
FARMACIAS GUADALAJARA,25.51856858,-103.5260418
FARMACIAS GUADALAJARA,25.58515198,-103.525813
FARRMACIA Y CONSULTORIO,25.53478582,-103.5253162
FARMACIAS BENAVIDES SUC CUMBRES NLN,25.53485324,-103.5241922
FARMACIAS BENAVIDES SUCURSAL RESIDENCIAL LINCOLN NLN,25.57636921,-103.5218688
FARMACIAS BENAVIDES SUC CHINA NLN,25.57649907,-103.5213484
FARMACIAS GUADALAJARA,25.54263002,-103.5208253
FARMACIAS GUADALAJARA,20.45451209,-103.5205057
FARMACIAS BENAVIDES SUC LEONES NLN,20.01080072,-103.5194473
FARMACIAS BENAVIDES SUCURSAL LA PURISIMA NLN,2.55357043,-103.5189287
FARMACIAS GUADALAJARA,2.56010075,-103.5172474
COMERCIALIZADORA MEDIX,0.25591718,-103.513477
FARMACIA CINCO ESTRELLAS,25.53935226,-103.509967
FARMACIAS BENAVIDES SUCURSAL MODERNA NLN,25.58720743,-103.507371
FARMACIA LULU,25.55978385,-103.5073057
FARMACIAS GUADALAJARA,25.58468139,-103.5067167
FARMACIAS GUADALAJARA,25.55647754,-103.5067016
FARMACIAS GUADALAJARA,25.56958166,-103.5056555
FARMACIA DOLORES,20.48163592,-103.503098
FARMACIA LA SALUD,20.48142892,-103.500892
FARMACIAS BENAVIDES SUCURSAL MITRAS NLN,25.56818998,-103.5005074
FARMACIAS GUADALAJARA,25.56714348,-103.4998858
FARMACIAS GUADALAJARA,25.55430991,-103.4990447
FARMACIAS GUADALAJARA,25.56517043,-103.4987615
FARMACIAS BENAVIDES SUC. LA FLORESTA NLN,25.57233912,-103.4980954
FARMACIA EDER,25.56498928,-103.4964609
FARMACIAS DEL NORESTE,25.56366961,-103.495745
FARMACIA BENAVIDES SUC PLAZA BOREAL NLN,25.59141511,-103.4956671
FARMACIAS BENAVIDES SUC COLOSIO NLN,25.56315768,-103.4953169
FARMACIAS BENAVIDES SUCURSAL RINCON DE SAN JERONIMO NLN,25.58032564,-103.4946138
FARMACIAS GUADALAJARA,25.58469595,-103.4943004
FARMACIAS GUADALAJARA,20.80351696,-103.4934102
FARMACIAS BENAVIDES SUCURSAL GUAYANA INGLESA NLN,25.55296298,-103.4934022
FARMACIAS BENAVIDES SUC LOS PUERTOS,25.55343499,-103.4929609
FARMACIAS BENAVIDES SUCURSAL URDIALES NLN,25.55306656,-103.4897885
FARMACIAS BENAVIDES SUCURSAL PINO REAL NLN,20.80339814,-103.4859707
FARMACIAS GUADALAJARA,25.58911364,-103.4856814
FARMACIAS BENAVIDES SUCURSAL LINDA VISTA NLN,2.55651538,-103.4844453
FARMACIA BENAVIDES SUCURSAL CEL NLN,25.58308888,-103.4836567
FARMACIAS GUADALAJARA,25.59275724,-103.4826959
FARMACIAS BENAVIDES SUC LOPEZ MATEOS NLN,25.58881213,-103.4826688
LA FARMA,20.79939794,-103.4821108
FARMACIAS BENAVIDES UCURSAL HOSPITAL NLN,25.55815149,-103.4818065
FARMACIAS GUADALAJARA,20.52517301,-103.4807907
CORPOMED,19.70270779,-103.4802871
FARMACIAS BENAVIDES SUC COLINAS DE SAN JERONIMO,20.56532728,-103.4783496
FARMACIAS BENAVIDES SUCURSAL ALAMOS NLN,20.32736321,-103.4783419
FARMACIAS BENAVIDES SUC HACIENDA LOS LERMAS NLN,2.07988897,-103.4779842
FARMACIA GUADALAJARA,20.79863263,-103.4779733
FARMACIAS GUADALAJARA,20.79560776,-103.4772322
FARMACIAS BENAVIDES SUC UNIVERSIDAD Y COLON NLN,25.53394051,-103.4751951
CORPORATIVO PUREX,25.57226435,-103.4712716
FARMACIAS GUADALAJARA,2.07984261,-103.4701091
FARMACIAS GUADALAJARA,19.70332078,-103.4689785
CORPORATIVO PUREX,20.52461112,-103.4688363
FARMACIA GUADALAJARA,19.69693642,-103.4681014
FARMACIAS ABC DEL NORTE,20.54786897,-103.4676328
FARMACIAS BENAVIDES SUC SAN HUMBERTO NLN,25.52750154,-103.4673176
FARMACIAS BENAVIDES SUCURSAL FELIPE AZTECA O.F.M. NLN,19.69235258,-103.4672502
FARMACIA SAN JEMO,25.53455087,-103.4662645
FARMACIAS GUADALAJARA,20.54802516,-103.4662496
FARMACIA LA PAZ,19.70351825,-103.4656492
FARMACIAS BENAVIDES SUC MADERO ORIENTE,20.80588627,-103.4647288
FARMACIAS ABC DEL NORTE,25.53776277,-103.4642747
FARMACIAS GUADALAJARA,21.46425853,-103.4641059
FARMACIAS GUADALAJARA,19.70350526,-103.4640125
FARMACIAS BENAVIDES SUCURSAL GALERIAS MONTERREY NLN,1.97046346,-103.4638324
FARMACIAS BENAVIDES SUC CLOUTHIER NLN,19.69978543,-103.4637592
FARMACIAS GUADALAJARA,1.97082694,-103.4632308
FARMACIA TREVIÑO,25.58870123,-103.463105
FARMACIAS GUADALAJARA,21.46363474,-103.4625241
FARMACIA BENAVIDES SUC INSURGENTES MONTERREY- PIRANDELO NLN,19.70542359,-103.462353
FARMACIAS BENAVIDES SUC VILLA OBISPADO NLN,19.71889318,-103.4620839
FARMACIAS BENAVIDES SUC MANUEL ORDOÑEZ NLN,20.63529246,-103.4620495
FARMACIAS BENAVIDES SUC METRO GUADALUPE NLN,19.71051487,-103.4616003
FARMACIA BENAVIDES SUC GUADALUPE CENTRO NLN,19.70130049,-103.4613196
